{
  "version": 0.6,
  "generator": "Overpass API 0.7.55.1009 5e627b63",
  "osm3s": {
    "timestamp_osm_base": "2020-01-05T20:19:02Z",
    "timestamp_areas_base": "2020-01-05T18:58:02Z",
    "copyright": "The data included in this document is from www.openstreetmap.org. The data is made available under ODbL."
  },
  "elements": [

{
  "type": "node",
  "id": 974239124,
  "lat": 48.4491580,
  "lon": 2.1715580,
  "tags": {
    "addr:city": "Étampes",
    "addr:housenumber": "102",
    "addr:street": "Boulevard Saint-Michel",
    "clothes": "babies",
    "name": "Baby's Troc",
    "second_hand": "only",
    "shop": "clothes"
  }
},
{
  "type": "node",
  "id": 1255608009,
  "lat": 43.3233165,
  "lon": 1.9469521,
  "tags": {
    "name": "Emmaüs",
    "opening_hours": "Tu, Th 09:00-12:00",
    "operator": "Emmaüs",
    "second_hand": "only",
    "shop": "charity",
    "wheelchair": "yes"
  }
},
{
  "type": "node",
  "id": 1398758957,
  "lat": 47.1918986,
  "lon": -1.5461138,
  "tags": {
    "charity": "yes",
    "contact:city": "Rezé",
    "contact:email": "alejandradujan@hotmail.fr",
    "contact:facebook": "https://www.facebook.com/associationlafripouille/#",
    "contact:housenumber": "49",
    "contact:phone": "+33 2 53 97 36 76",
    "contact:postcode": "44000",
    "contact:street": "rue alsace lorraine",
    "description": "Ventes de vêtements d’occasions homme et femme, recyclage de vêtements en atelier couture, cours de couture; machine a coudre en libre service.",
    "mapillary": "BFSN-4BwyE8_0D4waqWCOQ",
    "name": "Miss récup & recycle",
    "note": "Voir https://wiki.openstreetmap.org/wiki/WikiProject_CircularEconomy pour conseils de cartographie.",
    "opening_hours": "Tu We Fr 10h30-19h00, Sa 10h30-18h00",
    "operator": "Association Miss récup & recycle",
    "recycling:clothes": "yes",
    "second_hand": "only",
    "service": "sewing classes",
    "shop": "clothes",
    "source": "MieuxTrierANantes 2019",
    "vending": "textile;chaussure;ceinture;sac"
  }
},
{
  "type": "node",
  "id": 1491223501,
  "lat": 50.6284160,
  "lon": 3.0522950,
  "tags": {
    "name": "Bon Chic Bonne Fripe",
    "second_hand": "only",
    "shop": "clothes",
    "source": "survey",
    "survey:date": "2018-02"
  }
},
{
  "type": "node",
  "id": 1532506435,
  "lat": 43.5995252,
  "lon": 1.4293897,
  "tags": {
    "addr:city": "Toulouse",
    "addr:housenumber": "89",
    "addr:postcode": "31300",
    "addr:street": "Allées Charles de Fitte",
    "name": "Emmaüs AGIR Frip' Art",
    "opening_hours": "Tu-Sa 10:00-18:30",
    "operator": "Emmaüs AGIR",
    "phone": "+33 9 73 61 50 57",
    "second_hand": "only",
    "shop": "charity",
    "source": "GrandToulouse",
    "source:date": "2011-11-06",
    "website": "https://www.emmaus-agir-31.fr/nos-adresses/%e2%80%8bfripart/"
  }
},
{
  "type": "node",
  "id": 1607079907,
  "lat": 43.6171885,
  "lon": 3.8822532,
  "tags": {
    "addr:housenumber": "5",
    "addr:postcode": "34000",
    "addr:street": "Rue de la Poésie",
    "bicycle:repair": "yes",
    "description": "Atelier associatif d'entretien de votre élo",
    "name": "Le Vieux Biclou",
    "office": "association",
    "repair": "yes",
    "second_hand": "only",
    "shop": "bicycle",
    "website": "http://www.vieuxbiclou.org/",
    "wheelchair": "yes"
  }
},
{
  "type": "node",
  "id": 1652874151,
  "lat": 47.2102685,
  "lon": -1.5508755,
  "tags": {
    "amenity": "recycling",
    "charity": "yes",
    "charity:description": "La vente des objets usagés permet le financement des actions du Secours Populaire Français.",
    "contact:email": "nantes@spf.org",
    "contact:facebook": "https://www.facebook.com/spf.nantes/",
    "contact:housenumber": "31",
    "contact:phone": "+33 2 40 29 45 26;+33 2 40 74 14 14",
    "contact:postcode": "44000",
    "contact:website": "https://www.secourspopulaire.fr/spop-affaires",
    "description": "De nombreux vêtements sont proposés dans cette boutique constituée de plusieurs petites pièces. Il y a aussi quelques livres pour enfants et quelques jouets.",
    "mapillary": "FyLThRrCZZFnE23o7RukMQ",
    "name": "Boutique Madeleine - fripes et bidules",
    "note": "Voir https://wiki.openstreetmap.org/wiki/WikiProject_CircularEconomy pour conseils de cartographie.",
    "opening_hours": "Mo 14:00-17:00;Tu,Th,Fr 10:00-13:00,14:30-17:00",
    "operator": "Association Secours Populaire Français Nantes",
    "recycling:clothes": "yes",
    "recycling:shoes": "yes",
    "recycling_type": "centre",
    "second_hand": "only",
    "shop": "clothes",
    "source": "Entretien SecoursPopulaire /MieuxTrierANantes 08/2016; Mieux trier à Nantes 09/2018 - 07/2019",
    "vending": "vêtement;livre;jouet;pull;pantalon;veste"
  }
},
{
  "type": "node",
  "id": 1662359770,
  "lat": 45.7518448,
  "lon": 4.8492251,
  "tags": {
    "name": "Emmaüs Crequi",
    "opening_hours": "Tu-Sa 10:00-12:00; Tu-Sa 14:00-18:30",
    "operator": "Emmaüs France",
    "operator:wikidata": "Q3053001",
    "operator:wikipedia": "fr:Emmaüs France",
    "phone": "+33 4 78 78 10 90",
    "second_hand": "only",
    "shop": "charity",
    "website": "http://www.emmaus-lyon.org/acheter/"
  }
},
{
  "type": "node",
  "id": 1683368936,
  "lat": 47.1917667,
  "lon": -1.5461917,
  "tags": {
    "addr:city": "Rezé",
    "addr:housenumber": "55",
    "addr:postcode": "44400",
    "addr:street": "Rue Alsace-Lorraine",
    "contact:email": "contact@latelierdesreparations.fr",
    "contact:facebook": "https://www.facebook.com/atelierdesreparations/",
    "contact:phone": "+33 2 72 65 91 67",
    "description": "Boutique spécialisée dans la réparation de matériel informatique, smartphones, consoles et tous appareils électroniques.",
    "name": "L'atelier des réparations",
    "note": "Voir https://wiki.openstreetmap.org/wiki/WikiProject_CircularEconomy pour conseils de cartographie. ",
    "opening_hours": "Tu-Sa 10:00-13:00, 14:00 18:00",
    "phone": "+33240756470",
    "second_hand": "only",
    "shop": "computer,mobile_phone",
    "source": "Association MieuxTrierANantes"
  }
},
{
  "type": "node",
  "id": 1692370844,
  "lat": 48.3973574,
  "lon": -4.4815312,
  "tags": {
    "addr:city": "Brest",
    "addr:housenumber": "19",
    "addr:postcode": "29200",
    "addr:street": "Rue Bruat",
    "name": "Brest À Pied et À Vélo (BAPAV)",
    "opening_hours": "Th 15:00-18:00; Fr 16:00-20:00",
    "phone": "+33 9 81 62 70 20",
    "ref:FR:FANTOIR": "290190660R",
    "second_hand": "only",
    "service:bicycle:diy": "yes",
    "shop": "bicycle",
    "website": "http://bapav.infini.fr"
  }
},
{
  "type": "node",
  "id": 1730640904,
  "lat": 47.2432133,
  "lon": -1.5545268,
  "tags": {
    "amenity": "recycling",
    "charity": "yes",
    "contact:city": "Nantes",
    "contact:housenumber": "3",
    "contact:postcode": "44300",
    "contact:street": "Chemin de la Censive du Tertre",
    "description": "Vélocampus est une association qui anime des ateliers participatifs et solidaires qui visent à fournir aux participants une certaine autonomie à l'entretien et la réparation de leur vélo.",
    "image": "http://www.velocampus.net/local/cache-vignettes/L680xH173/PB200053-dd347.jpg",
    "name": "Vélocampus",
    "note": "Voir https://wiki.openstreetmap.org/wiki/WikiProject_CircularEconomy pour conseils de cartographie.",
    "office": "ngo",
    "operator": "Association Vélocampus",
    "recycling:bicycles": "yes",
    "second_hand": "only",
    "service:bicycle:repair": "yes",
    "website": "http://www.velocampus.net/"
  }
},
{
  "type": "node",
  "id": 1773529810,
  "lat": 48.8198244,
  "lon": 2.3426809,
  "tags": {
    "addr:city": "Paris",
    "addr:housenumber": "14",
    "addr:street": "Boulevard Jourdan",
    "level": "0",
    "name": "Boulinier Jourdan",
    "opening_hours": "Mo-Sa 10:30-20:00; Su 14:00-20:00",
    "second_hand": "only",
    "shop": "books",
    "source": "cadastre-dgi-fr source : Direction Générale des Impôts - Cadastre. Mise à jour : 2012, boulinier.com",
    "wheelchair": "yes"
  }
},
{
  "type": "node",
  "id": 1825768712,
  "lat": 43.9489960,
  "lon": 4.8070460,
  "tags": {
    "name": "Hookies",
    "second_hand": "only",
    "shop": "clothes",
    "source": "survey",
    "survey:date": "2019-04-18",
    "was:name": "ID comics;Glam",
    "was:shop": "books;clothes"
  }
},
{
  "type": "node",
  "id": 1865679810,
  "lat": 44.3638853,
  "lon": 2.5927485,
  "tags": {
    "amenity": "recycling",
    "disused:name": "Vival",
    "disused:shop": "convenience",
    "name": "La Petite Recyclerie",
    "operator": "Progress",
    "recycling:books": "yes",
    "recycling:computer": "yes",
    "second_hand": "only",
    "source": "Survey 2019"
  }
},
{
  "type": "node",
  "id": 1934793710,
  "lat": 43.3137814,
  "lon": 3.3446112,
  "tags": {
    "name": "Abition Auto 34",
    "second_hand": "only",
    "shop": "car"
  }
},
{
  "type": "node",
  "id": 1946369411,
  "lat": 45.6122851,
  "lon": 0.0781318,
  "tags": {
    "name": "Emmaüs",
    "opening_hours": "We 14:00-17:00; Sa 10:00-12:00,14:00-17:00",
    "second_hand": "only",
    "shop": "charity"
  }
},
{
  "type": "node",
  "id": 2017961805,
  "lat": 44.3771952,
  "lon": 2.5386004,
  "tags": {
    "addr:street": "Route de Decazeville",
    "name": "Garage Vergnes Jacky",
    "operator": "Vergnes Jacky",
    "second_hand": "only",
    "shop": "car",
    "source": "survey"
  }
},
{
  "type": "node",
  "id": 2018813366,
  "lat": 45.9133829,
  "lon": 6.1440329,
  "tags": {
    "brand": "Peugeot",
    "brand:wikidata": "Q6742",
    "brand:wikipedia": "en:Peugeot",
    "name": "Peugeot",
    "second_hand": "only",
    "shop": "car"
  }
},
{
  "type": "node",
  "id": 2024662275,
  "lat": 43.2990190,
  "lon": 5.3753844,
  "tags": {
    "operator": "Emmaüs",
    "second_hand": "only",
    "shop": "charity"
  }
},
{
  "type": "node",
  "id": 2025173071,
  "lat": 48.6059997,
  "lon": 7.7524656,
  "tags": {
    "internet_access": "yes",
    "name": "Desclicks - L'informatique Solidaire",
    "office": "association",
    "opening_hours:url": "http://www.desclicks.net/contact",
    "opensource": "selling",
    "phone": "+33 3 88836410",
    "repair": "welcome",
    "second_hand": "only",
    "service:computer": "yes",
    "service:print": "yes",
    "service:scan": "yes",
    "shop": "computer",
    "website": "https://desclicks.net/",
    "wheelchair": "yes"
  }
},
{
  "type": "node",
  "id": 2028106650,
  "lat": 43.2947700,
  "lon": 5.3845978,
  "tags": {
    "name": "Tirechappe",
    "second_hand": "only",
    "shop": "clothes"
  }
},
{
  "type": "node",
  "id": 2059732944,
  "lat": 43.9451140,
  "lon": 4.8066490,
  "tags": {
    "name": "La friperie avignonnaise",
    "second_hand": "only",
    "shop": "clothes",
    "source": "survey",
    "survey:date": "2019-10-27",
    "was:name": "Cardel",
    "was:shop": "shoes"
  }
},
{
  "type": "node",
  "id": 2086044460,
  "lat": 49.0525194,
  "lon": -1.4422146,
  "tags": {
    "name": "La Maôve",
    "second_hand": "only",
    "shop": "books"
  }
},
{
  "type": "node",
  "id": 2187051566,
  "lat": 43.6614055,
  "lon": 1.4303524,
  "tags": {
    "addr:housenumber": "31",
    "addr:street": "Avenue de Fronton",
    "clothes": "children",
    "contact:email": "contact@toobo-vetements.fr",
    "contact:phone": "+33562160032",
    "contact:website": "http://www.toobo-vetements.fr/",
    "name": "Toobo",
    "opening_hours": "Mo 15:00-19:00; Tu-Sa 10:00-13:00,14:30-19:00",
    "second_hand": "only",
    "shop": "clothes",
    "source": "survey"
  }
},
{
  "type": "node",
  "id": 2242868395,
  "lat": 47.2192373,
  "lon": -1.5551204,
  "tags": {
    "contact:city": "Nantes",
    "contact:country": "FR",
    "contact:facebook": "https://www.facebook.com/pischboutique/",
    "contact:housenumber": "17",
    "contact:phone": "+33 6 77 63 98 98",
    "contact:postcode": "44000",
    "contact:street": "Rue Léon Blum",
    "description": "Achat/vente de vinyles et livres d'occasion",
    "name": "Pisch",
    "opening_hours": "Tu-Sa 14:00-20:00",
    "second_hand": "only",
    "shop": "music",
    "source": "survey",
    "survey:date": "2019-02-24"
  }
},
{
  "type": "node",
  "id": 2260735420,
  "lat": 47.2163114,
  "lon": -1.5558953,
  "tags": {
    "amenity": "shop",
    "books": "comic",
    "contact:city": "Nantes",
    "contact:country": "FR",
    "contact:facebook": "https://www.facebook.com/bdmnantes",
    "contact:housenumber": "7",
    "contact:phone": "+33 952 414 012",
    "contact:postcode": "44000",
    "contact:street": "Rue des Trois Croissants",
    "contact:website": "http://www.bande-dessinee-musique-nantes.fr",
    "description": "Achat, vente et échange de mangas, BD, comics, CD, vinyles, DVD, Blu-Ray.",
    "mapillary": "49-dnejkcZeFGLJS5r6F5A",
    "name": "Bande Dessinée Musique",
    "note": "Voir https://wiki.openstreetmap.org/wiki/WikiProject_CircularEconomy pour conseils de cartographie.",
    "opening_hours": "Tu-Sa 10:30-19:00; Jul-Aug: Mo-Sa 12:00-18:00",
    "recycling:books": "yes",
    "recycling:cds": "yes",
    "second_hand": "only",
    "shop": "books",
    "source": "Mieux trier à Nantes 07/2019",
    "survey:date": "2019-10-23",
    "vending": "manga;BD;comics;CD;vinyle;DVD;Blu-Ray",
    "wheelchair": "limited"
  }
},
{
  "type": "node",
  "id": 2302548130,
  "lat": 44.4019105,
  "lon": 2.6120286,
  "tags": {
    "name": "Troc Machin - Dépot Vente",
    "opening_hours": "Mo off; Tu-Sa 10:00-12:00,14:00-19:00; Su 14:00-19:00",
    "second_hand": "only",
    "shop": "second_hand",
    "source": "survey"
  }
},
{
  "type": "node",
  "id": 2380355774,
  "lat": 46.9532869,
  "lon": 4.2959976,
  "tags": {
    "contact:phone": "+33 3 85 52 43 69",
    "name": "Emmaüs",
    "opening_hours": "Tu-Sa 10:00-12:00,14:00-18:00",
    "second_hand": "only",
    "shop": "charity",
    "website": "http://www.emmaus-etang.com/magasin-autun.html"
  }
},
{
  "type": "node",
  "id": 2393205130,
  "lat": 47.2163956,
  "lon": -1.5527195,
  "tags": {
    "brand": "O'CD",
    "contact:city": "Nantes",
    "contact:country": "FR",
    "contact:housenumber": "37",
    "contact:phone": "+33 2 40 20 07 55",
    "contact:postcode": "44000",
    "contact:street": "Rue de Verdun",
    "contact:website": "http://ocd.fr",
    "name": "O'CD",
    "opening_hours": "Mo-Sa 10:30-19:30",
    "second_hand": "only",
    "shop": "music",
    "survey:date": "2019-02-24",
    "wheelchair": "limited"
  }
},
{
  "type": "node",
  "id": 2436835683,
  "lat": 45.4479355,
  "lon": 4.3825406,
  "tags": {
    "addr:housenumber": "17",
    "addr:street": "Rue Clovis Hugues",
    "name": "Le Bruit des Vagues",
    "second_hand": "only",
    "shop": "books"
  }
},
{
  "type": "node",
  "id": 2462248746,
  "lat": 43.6005436,
  "lon": 1.4426811,
  "tags": {
    "name": "Super Fripes",
    "second_hand": "only",
    "shop": "clothes",
    "source": "survey"
  }
},
{
  "type": "node",
  "id": 2517188834,
  "lat": 45.4297504,
  "lon": 4.3899898,
  "tags": {
    "name": "La Banque du Livre",
    "opening_hours": "Mo-Sa 09:00-19:00",
    "second_hand": "only",
    "shop": "books"
  }
},
{
  "type": "node",
  "id": 2517664034,
  "lat": 45.4344871,
  "lon": 4.3896648,
  "tags": {
    "name": "Au Bouquiniste",
    "second_hand": "only",
    "shop": "books"
  }
},
{
  "type": "node",
  "id": 2749759236,
  "lat": 48.1094695,
  "lon": -1.6758125,
  "tags": {
    "image": "https://p5.storage.canalblog.com/56/72/749764/122413309.jpg",
    "name": "Rennes d'Arabie",
    "opening_hours": "Tu-Sa 11:00-19:00",
    "second_hand": "only",
    "shop": "books"
  }
},
{
  "type": "node",
  "id": 2767569611,
  "lat": 45.5267573,
  "lon": 4.8743797,
  "tags": {
    "addr:city": "Vienne",
    "addr:housenumber": "11",
    "addr:postcode": "38200",
    "addr:street": "Rue des Clercs",
    "description:fr": "Dépôt vente de vêtements.",
    "name": "Le dépôt de Camille",
    "phone": "+33 4 74 58 41 88",
    "second_hand": "only",
    "shop": "clothes",
    "website": "https://www.facebook.com/pages/LE-DEPOT-De-Camille/842865289080312"
  }
},
{
  "type": "node",
  "id": 2848152601,
  "lat": 48.8486860,
  "lon": 2.3472380,
  "tags": {
    "alt_name": "Léonce Laget",
    "name": "Pierre Brunet",
    "opening_hours": "Tu-Fr 09:30-12:00,14:00-18:00, Sa 10:00-12:00,14:00-17:00",
    "second_hand": "only",
    "shop": "books"
  }
},
{
  "type": "node",
  "id": 2864179162,
  "lat": 44.3486009,
  "lon": 2.5774993,
  "tags": {
    "addr:housenumber": "24",
    "addr:street": "Boulevard Denys Puech",
    "contact:email": "artgillibrairie@orange.fr",
    "contact:phone": "+33565429521",
    "description": "déménagement de la Place du Bourg le 10/2013",
    "name": "Librairie Gil",
    "opening_hours": "Mo 14:30-18:30; Tu-Sa 09:30-18:30",
    "second_hand": "only",
    "shop": "books",
    "source": "survey2014",
    "start_date": "10/2013"
  }
},
{
  "type": "node",
  "id": 2927502701,
  "lat": 48.8809912,
  "lon": 2.3271773,
  "tags": {
    "name": "Le Passé Composé",
    "opening_hours": "Mo-Fr 11:00-14:00,15:00-19:00; Sa 15:00-18:30",
    "second_hand": "only",
    "shop": "books"
  }
},
{
  "type": "node",
  "id": 2930120501,
  "lat": 47.6343708,
  "lon": 6.8539780,
  "tags": {
    "name": "Bouquinerie du Lion",
    "opening_hours": "Tu 10:00-13:00,14:00-18:30; We-Fr 14:00-18:30; Sa 10:00-12:00,14:00-18:30",
    "second_hand": "only",
    "shop": "books",
    "wheelchair": "limited"
  }
},
{
  "type": "node",
  "id": 2953254706,
  "lat": 45.7514589,
  "lon": 4.8414946,
  "tags": {
    "contact:email": "ateliervelo@free.fr",
    "name": "L'Atelier du Chat Perché",
    "opening_hours": "Tu 15:00-20:00; We 17:00-21:00; Fr 15:00-19:00; ",
    "operator": "Association Atelier du Chat Perché",
    "second_hand": "only",
    "service": "repair",
    "service:bicycle:diy": "yes",
    "service:bicycle:repair": "yes",
    "shop": "bicycle",
    "survey:date": "2019-02-02",
    "website": "http://www.chatperche.org"
  }
},
{
  "type": "node",
  "id": 3044304930,
  "lat": 48.7869915,
  "lon": -3.2308834,
  "tags": {
    "name": "Filigrane du Passe",
    "opening_hours": "Tu-Sa 10:00-12:30, 14:30-19:00, Su 10:00-12:30",
    "phone": "+33 6 70 07 07 19",
    "second_hand": "only",
    "shop": "books",
    "source": "cadastre-dgi-fr source : Direction Générale des Impôts - Cadastre. Mise à jour : 2010"
  }
},
{
  "type": "node",
  "id": 3071376147,
  "lat": 49.0302360,
  "lon": 2.3329309,
  "tags": {
    "name": "La Friponnerie",
    "second_hand": "only",
    "shop": "clothes",
    "source": "survey"
  }
},
{
  "type": "node",
  "id": 3071906922,
  "lat": 46.1580847,
  "lon": -1.1498458,
  "tags": {
    "name": "Le Bouquiniste",
    "second_hand": "only",
    "shop": "books"
  }
},
{
  "type": "node",
  "id": 3100142013,
  "lat": 48.1900663,
  "lon": 6.4747480,
  "tags": {
    "name": "Easy Cash",
    "phone": "+33 3 29 66 63 30",
    "second_hand": "only",
    "shop": "second_hand",
    "source": "cadastre-dgi-fr source : Direction Générale des Finances Publiques - Cadastre. Mise à jour : 2014"
  }
},
{
  "type": "node",
  "id": 3136684929,
  "lat": 49.4395900,
  "lon": 1.0992620,
  "tags": {
    "name": "Bertran",
    "second_hand": "only",
    "shop": "books"
  }
},
{
  "type": "node",
  "id": 3164644702,
  "lat": 44.3531073,
  "lon": 2.5769050,
  "tags": {
    "fixme": "ameliorer positionnement",
    "name": "Emmaüs Rodez",
    "operator": "Emmaüs",
    "second_hand": "only",
    "shop": "clothes",
    "source": "survey 2012"
  }
},
{
  "type": "node",
  "id": 3202044287,
  "lat": 45.1872473,
  "lon": 5.6852045,
  "tags": {
    "name": "Dégriff'Auto",
    "second_hand": "only",
    "shop": "car"
  }
},
{
  "type": "node",
  "id": 3202044288,
  "lat": 45.2553672,
  "lon": 5.6274959,
  "tags": {
    "addr:housenumber": "296",
    "addr:street": "Rue de la Béalière",
    "name": "LCT Occasion Auto",
    "second_hand": "only",
    "shop": "car"
  }
},
{
  "type": "node",
  "id": 3203413606,
  "lat": 44.8207027,
  "lon": -0.5833459,
  "tags": {
    "name": "Démarquez Vous",
    "second_hand": "only",
    "shop": "clothes"
  }
},
{
  "type": "node",
  "id": 3223388280,
  "lat": 49.1679565,
  "lon": -1.5953433,
  "tags": {
    "second_hand": "only",
    "shop": "books"
  }
},
{
  "type": "node",
  "id": 3267097175,
  "lat": 47.2151688,
  "lon": -1.5590170,
  "tags": {
    "amenity": "shop",
    "clothes": "women;men;children",
    "contact:email": "contact.kawaii.nantes@kilo-shop.fr",
    "contact:phone": "+33 2 40 89 27 22",
    "contact:website": "http://kilo-shop.com",
    "image": "https://encrypted-tbn0.gstatic.com/images?q=tbn:ANd9GcTmHHMagXNP7gKklaUF-7Nj0k7elNU7xi00sXirBigQJc-qxcXObQ",
    "level": "0;1",
    "name": "Kilo Shop",
    "note": "Voir https://wiki.openstreetmap.org/wiki/WikiProject_CircularEconomy pour conseils de cartographie.",
    "recycling:clothes": "yes",
    "recycling:shoes": "yes",
    "second_hand": "only",
    "shop": "clothes",
    "wheelchair": "no"
  }
},
{
  "type": "node",
  "id": 3397970016,
  "lat": 47.3398448,
  "lon": 0.7153851,
  "tags": {
    "amenity": "recycling",
    "charity": "yes",
    "clothes": "women",
    "contact:city": "Chambray-lès-Tours",
    "contact:facebook": "https://www.facebook.com/pages/category/Community/La-Boutique-du-Coeur-622092214655107/",
    "contact:housenumber": "20",
    "contact:postcode": "37170",
    "contact:street": "avenue des Platanes",
    "description": "Vente des vêtements ou des chaussures issus de dons, à bas prix. C’est près de 18 tonnes de vêtements qui sont triés, remis en état, puis proposés à la vente chaque année. Présence d'un conteneur de dépôt de vêtements",
    "name": "La Boutique du Coeur",
    "note": "Voir https://wiki.openstreetmap.org/wiki/WikiProject_CircularEconomy pour des conseils de cartographie.",
    "opening_hours": "We,Fr 14:30-17:00",
    "recycling:clothes": "yes",
    "recycling:shoes": "yes",
    "recycling_type": "container",
    "second_hand": "only",
    "shop": "clothes",
    "source": "cadastre-dgi-fr source : Direction Générale des Impôts - Cadastre. Mise à jour : 2015"
  }
},
{
  "type": "node",
  "id": 3465915968,
  "lat": 47.3818466,
  "lon": 0.7205872,
  "tags": {
    "amenity": "deposit_sale",
    "name": "Dépot-Vente de Tours",
    "note": "Voir https://wiki.openstreetmap.org/wiki/WikiProject_CircularEconomy pour conseils de cartographie.",
    "recycling:clothes": "yes",
    "recycling:shoes": "yes",
    "second_hand": "only"
  }
},
{
  "type": "node",
  "id": 3467698382,
  "lat": 45.4359815,
  "lon": 4.4190069,
  "tags": {
    "addr:city": "Saint-Etienne",
    "addr:housenumber": "47",
    "addr:postcode": "42100",
    "addr:street": "Rue Gauthier Dumont",
    "contact:website": "http://loire.envie.org/",
    "name": "Envie Loire Electroménager",
    "opening_hours": "Mo-Sa 10:00-19:00",
    "operator": "Envie",
    "phone": "+33 4 77333523",
    "second_hand": "only",
    "shop": "electronics",
    "wheelchair": "yes"
  }
},
{
  "type": "node",
  "id": 3508792778,
  "lat": 47.3083274,
  "lon": 0.5370014,
  "tags": {
    "addr:housenumber": "1",
    "name": "Broc'joujoux",
    "recycling:toys": "yes",
    "second_hand": "only",
    "shop": "toys"
  }
},
{
  "type": "node",
  "id": 3575145867,
  "lat": 48.8961049,
  "lon": 2.2573590,
  "tags": {
    "addr:housenumber": "4",
    "contact:phone": "+33 1 77 35 70 76",
    "name": "Mac Occas",
    "opening_hours": "Tu-Sa 10:30-13:30,14:30-19:00",
    "second_hand": "only",
    "shop": "computer",
    "wheelchair": "limited"
  }
},
{
  "type": "node",
  "id": 3588429226,
  "lat": 48.9062310,
  "lon": 2.2597862,
  "tags": {
    "addr:housenumber": "80",
    "brand": "Ewigo",
    "contact:phone": "+33983352207",
    "contact:website": "http://www.ewigo.com",
    "name": "Ewigo",
    "operator": "Ewigo",
    "second_hand": "only",
    "shop": "car"
  }
},
{
  "type": "node",
  "id": 3610953940,
  "lat": 47.2007253,
  "lon": -1.5456918,
  "tags": {
    "contact:phone": "+33 2 53975039",
    "contact:website": "http://www.smartphonecity.fr/",
    "description": "Spécialiste de la réparation de smartphone, tablettes et ordinateurs",
    "mobile_phone:repair": "yes",
    "name": "SmartPhone City",
    "opening_hours": "Mo 12:00-18:30; Tu-Fr 09:30-18:30; Sa 10:30-18:00",
    "second_hand": "only",
    "shop": "mobile_phone",
    "survey:date": "2018-12-09"
  }
},
{
  "type": "node",
  "id": 3637810544,
  "lat": 48.1123480,
  "lon": -1.6079228,
  "tags": {
    "addr:city": "Cesson-Sévigné",
    "addr:housenumber": "19",
    "addr:postcode": "35510",
    "addr:street": "Avenue des Peupliers",
    "name": "Autovalley",
    "opening_hours": "Mo-Fr 09:00-12:00, 14:00-19:00; Sa 09:00-12:00, 14:00-18:00",
    "phone": "+33 2 99 83 33 68",
    "second_hand": "only",
    "shop": "car",
    "source:addr": "Rennes Métropole",
    "source:addr:housenumber:ref": "44035",
    "source:addr:version": "2016-04-01",
    "website": "https://www.autovalley.fr/"
  }
},
{
  "type": "node",
  "id": 3655664616,
  "lat": 48.1150612,
  "lon": -1.6792916,
  "tags": {
    "image": "http://www.ocd.fr/wp-content/uploads/2014/09/paysage110.jpg",
    "name": "O’CD",
    "opening_hours": "Mo-Sa 10:30-19:30",
    "recycling:cds": "yes",
    "second_hand": "only",
    "shop": "music"
  }
},
{
  "type": "node",
  "id": 3679967887,
  "lat": 46.7234809,
  "lon": -1.4238568,
  "tags": {
    "name": "Parc Occasions Océane Auto",
    "operator": "Océane Automobile",
    "second_hand": "only",
    "shop": "car"
  }
},
{
  "type": "node",
  "id": 3712073128,
  "lat": 49.9002283,
  "lon": 2.3471683,
  "tags": {
    "addr:city": "Camon",
    "addr:housenumber": "174",
    "addr:postcode": "80450",
    "addr:street": "Rue Lucien Barbier",
    "name": "Emmaüs",
    "opening_hours": "Tu-Fr 14:00-17:30; Sa 10:00-12:00,14:00-17:30",
    "phone": "+33 3 22 70 77 07",
    "second_hand": "only",
    "shop": "charity",
    "website": "http://emmauscamon80.e-monsite.com/"
  }
},
{
  "type": "node",
  "id": 3713882072,
  "lat": 45.7626230,
  "lon": 4.9385845,
  "tags": {
    "name": "Bric à Brac Décines-Charpieu",
    "opening_hours": "Tu 14:30-17:30; We-Th 14:30-17:30; PH off",
    "operator": "Foyer Notre-Dame des Sans-Abri",
    "phone": "+33 9 70 71 11 95",
    "second_hand": "only",
    "shop": "charity",
    "short_name": "Bric à Brac",
    "source": "knowledge",
    "website": "https://www.fndsa.org/bric-a-brac/bric-a-brac-decines.html"
  }
},
{
  "type": "node",
  "id": 3713882073,
  "lat": 45.7404638,
  "lon": 4.8504537,
  "tags": {
    "name": "Bric à Brac Lyon 7e – Rue de Toulon",
    "opening_hours": "Tu-Fr 14:30-17:30; PH off",
    "operator": "Foyer Notre-Dame des Sans-Abri",
    "phone": "+33 4 72 73 09 27",
    "second_hand": "only",
    "shop": "charity",
    "short_name": "Bric à Brac",
    "source": "knowledge",
    "start_date": "2015-08-25",
    "website": "https://www.fndsa.org/bric-a-brac/bric-a-brac-rue-de-toulon.html"
  }
},
{
  "type": "node",
  "id": 3715605075,
  "lat": 45.7795388,
  "lon": 4.8341157,
  "tags": {
    "name": "Bric à Brac Lyon 4e – Croix-Rousse",
    "opening_hours": "Mo-Fr 14:30-17:30, Sa 09:30-12:00; PH off",
    "operator": "Foyer Notre-Dame des Sans-Abri",
    "phone": "+33 4 72 07 94 89",
    "second_hand": "only",
    "shop": "charity",
    "short_name": "Bric à Brac",
    "website": "https://www.fndsa.org/",
    "wheelchair": "limited"
  }
},
{
  "type": "node",
  "id": 3715605076,
  "lat": 45.7172491,
  "lon": 4.8103936,
  "tags": {
    "name": "Bric à Brac Oullins",
    "opening_hours": "Mo, We, Fr 14:30-17:30; Sa 09:00-12:00; PH off",
    "operator": "Foyer Notre-Dame des Sans-Abri",
    "phone": "+33 4 72 66 95 02",
    "second_hand": "only",
    "shop": "charity",
    "short_name": "Bric à Brac",
    "website": "https://www.fndsa.org/bric-a-brac/bric-a-brac-oullins.html"
  }
},
{
  "type": "node",
  "id": 3715605077,
  "lat": 45.7771818,
  "lon": 4.7992690,
  "tags": {
    "name": "Bric à Brac Lyon 9e – Vaise",
    "opening_hours": "Mo, We, Fr 14:30-17:30; Sa 09:00-12:00; PH off",
    "operator": "Foyer Notre-Dame des Sans-Abri",
    "phone": "+33 4 78 47 13 47",
    "second_hand": "only",
    "shop": "charity",
    "short_name": "Bric à Brac",
    "website": "https://www.fndsa.org/bric-a-brac/bric-a-brac-lyon-vaise.html"
  }
},
{
  "type": "node",
  "id": 3740998262,
  "lat": 43.6803661,
  "lon": 4.1071317,
  "tags": {
    "name": "Le Hangar",
    "second_hand": "only",
    "shop": "clothes"
  }
},
{
  "type": "node",
  "id": 3765276257,
  "lat": 49.6609259,
  "lon": 3.3672876,
  "tags": {
    "contact:phone": "+33 3 23 56 54 07",
    "name": "Aux trésors d'antan",
    "opening_hours": "Mo-Sa 09:00-12:30,14:00-18:00; Su 14:00-18:00",
    "second_hand": "only",
    "shop": "antiques",
    "website": "https://www.auxtresorsdantan.com/"
  }
},
{
  "type": "node",
  "id": 3796658242,
  "lat": 45.4357682,
  "lon": 4.3907442,
  "tags": {
    "contact:facebook": "http://www.facebook.com/La-Belette-722732767825448/",
    "contact:website": "http://www.la-belette.com",
    "name": "La Belette",
    "second_hand": "only",
    "shop": "clothes"
  }
},
{
  "type": "node",
  "id": 3871762527,
  "lat": 47.2157156,
  "lon": -1.5584820,
  "tags": {
    "addr:city": "Nantes",
    "addr:housenumber": "5",
    "addr:postcode": "44000",
    "addr:street": "Rue de l'Arche Sèche",
    "amenity": "shop",
    "contact:email": "nantes@gamecash.fr",
    "contact:phone": "+33 2 52 10 05 61",
    "contact:website": "https://www.gamecash.fr/magasin-gamecash-nantes-m68.html",
    "description": "jeux vidéo et consoles nouvelle génération d'occasion et reconditionnés : PS4, Xbox One, Switch, Wii U, 3DS, PS3, Xbox 360, etc. Vente de produits multimédias (smartphones, tablettes, PC…) reconditionnés.",
    "image": "https://www.gamecash.fr/thumbnail-650/nantes01-e54234.jpg",
    "name": "Gamecash",
    "note": "Voir https://wiki.openstreetmap.org/wiki/WikiProject_CircularEconomy pour conseils de cartographie.",
    "opening_hours": "Mo 13:00-19:00; Tu-Sa 10:00-19:00",
    "operator": "Entreprise Game Cash",
    "recycling:computers": "yes",
    "recycling:mobile_phones": "yes",
    "second_hand": "only",
    "shop": "video_games",
    "survey:date": "2018-12-09",
    "vending": "jeux vidéos; consoles; smartphones; tablettes; PC",
    "wheelchair": "yes"
  }
},
{
  "type": "node",
  "id": 3908375490,
  "lat": 45.0682492,
  "lon": 4.8660223,
  "tags": {
    "amenity": "public_bookcase",
    "fee": "no",
    "name": "La Boîte à Lire",
    "public_bookcase:type": "reading_box",
    "second_hand": "only"
  }
},
{
  "type": "node",
  "id": 3985239973,
  "lat": 47.7328677,
  "lon": -3.4200703,
  "tags": {
    "contact:phone": "+33 2 97 56 77 30",
    "name": "Nemesis West",
    "second_hand": "only",
    "shop": "car",
    "source": "survey"
  }
},
{
  "type": "node",
  "id": 4102574789,
  "lat": 49.1176925,
  "lon": 6.1804605,
  "tags": {
    "description": "Boutique vintage, Dépôt-vente",
    "name": "Moules Fripes",
    "opening_hours": "Th-Sa 10:00-19:00; Tu 10:00-19:00",
    "second_hand": "only",
    "shop": "clothes",
    "source": "survey",
    "survey:date": "2017-07"
  }
},
{
  "type": "node",
  "id": 4119820066,
  "lat": 45.3221730,
  "lon": 0.5857472,
  "tags": {
    "addr:city": "Bourdeilles",
    "addr:postcode": "24310",
    "addr:street": "Grande Rue",
    "name": "Le Tri-Cycle Enchanté",
    "phone": "+33 5 53 03 73 04",
    "second_hand": "only",
    "shop": "second_hand",
    "website": "http://www.tri-cycle.org",
    "wheelchair": "no"
  }
},
{
  "type": "node",
  "id": 4126134389,
  "lat": 48.8465706,
  "lon": 2.3207437,
  "tags": {
    "addr:city": "Paris",
    "addr:housenumber": "110",
    "addr:postcode": "75006",
    "addr:street": "Rue du Cherche-Midi",
    "clothes": "women",
    "currency:EUR": "yes",
    "currency:others": "no",
    "name": "Chercheminippes Accessoires de Mode",
    "opening_hours": "Mo-Sa 11:00-19:00",
    "operator": "SARL Chercheminippes",
    "phone": "+33 1 42 22 33 89",
    "second_hand": "only",
    "shop": "clothes",
    "website": "http://chercheminippes.fr"
  }
},
{
  "type": "node",
  "id": 4171330776,
  "lat": -21.3403930,
  "lon": 55.4734013,
  "tags": {
    "name": "Cash Express",
    "second_hand": "only",
    "shop": "second_hand"
  }
},
{
  "type": "node",
  "id": 4171330781,
  "lat": -21.3411230,
  "lon": 55.4781888,
  "tags": {
    "name": "Cash Converters",
    "second_hand": "only",
    "shop": "second_hand"
  }
},
{
  "type": "node",
  "id": 4171534263,
  "lat": 46.7824925,
  "lon": 4.9112990,
  "tags": {
    "name": "Did'Auto",
    "second_hand": "only",
    "shop": "car"
  }
},
{
  "type": "node",
  "id": 4185626789,
  "lat": 47.1872029,
  "lon": -1.5476991,
  "tags": {
    "amenity": "recycling",
    "charity": "yes",
    "contact:city": "Rezé",
    "contact:housenumber": "17",
    "contact:postcode": "44400",
    "contact:street": "Chemin Fontaine Launay",
    "description": "Reconditionnement et don d'ordinateurs sous Linux. Sur rendez-vous uniquement.",
    "email": "contact@naga44.org",
    "image": "http://www.mieuxtrieranantes.fr/docs/medias/StructuresReemploi/Naga/Naga_03.jpg",
    "name": "Nâga",
    "note": "Voir https://wiki.openstreetmap.org/wiki/WikiProject_CircularEconomy pour conseils de cartographie.",
    "office": "ngo",
    "opening_hours": "\"By appointment only\"",
    "operator": "Association Nâga",
    "phone": "+33 2 85 52 31 22",
    "recycling:computers": "yes",
    "recycling_type": "centre",
    "second_hand": "only",
    "shop": "computer",
    "smoking": "outside",
    "source": "MieuxTrierANantes",
    "website": "https://www.naga44.org/"
  }
},
{
  "type": "node",
  "id": 4244068292,
  "lat": 47.2046171,
  "lon": -1.5752436,
  "tags": {
    "charity": "yes",
    "clothes": "suits;shoes;baby;men;women;children",
    "contact:city": "Nantes",
    "contact:housenumber": "22",
    "contact:phone": "+33 2 40 69 38 22",
    "contact:postcode": "44100",
    "contact:street": "quai Ernest Renaud",
    "contact:website": "https://www.secourspopulaire.fr/pop-fringues",
    "location": "overground",
    "name": "Pop' Fringues",
    "note": "See https://wiki.openstreetmap.org/wiki/WikiProject_CircularEconomy for manual",
    "opening_hours": "Mo-Fr 13:00-17:00; We,PH off",
    "operator": "Secours Populaire Français Nantes",
    "recycling:clothes": "yes",
    "second_hand": "only",
    "shop": "clothes",
    "source": "MieuxTrierANantes"
  }
},
{
  "type": "node",
  "id": 4272189915,
  "lat": 48.4025965,
  "lon": -4.4885113,
  "tags": {
    "addr:city": "Brest",
    "addr:housenumber": "55",
    "addr:postcode": "29200",
    "addr:street": "Rue Auguste Kervern",
    "name": "Recyclerie Un peu d'R",
    "opening_hours": "tu 14:30-18:00; we-fr 9:30-12:30, 14:30-18:00;sa 9:30-13:00",
    "second_hand": "only",
    "shop": "second_hand",
    "website": "https://unpeudr.fr/"
  }
},
{
  "type": "node",
  "id": 4281614489,
  "lat": 48.8528519,
  "lon": 2.3366321,
  "tags": {
    "addr:housenumber": "125",
    "addr:street": "Boulevard Saint-Germain",
    "clothes:vintage": "yes",
    "name": "Kilo-Shop",
    "second_hand": "only",
    "shop": "clothes"
  }
},
{
  "type": "node",
  "id": 4319327004,
  "lat": 49.4922599,
  "lon": 0.1073895,
  "tags": {
    "addr:city": "Le Havre",
    "addr:postcode": "76600",
    "addr:street": "Place de l'hôtel de ville",
    "name": "Cash Express",
    "second_hand": "only",
    "shop": "second_hand"
  }
},
{
  "type": "node",
  "id": 4323499191,
  "lat": 47.2121039,
  "lon": -1.5468574,
  "tags": {
    "amenity": "recycling",
    "charity": "yes",
    "contact:city": "Nantes",
    "contact:country": "FR",
    "contact:housenumber": "32",
    "contact:postcode": "44000",
    "contact:street": "rue Fouré",
    "description": "Les boutiques 'Ding Fring' proposent certains des vêtements déposés dans les bornes Le Relais : pull, lingerie, vestes, jupes, pantalons, laine, ceintures, vêtement de travail, livres, peluches... Un quart du stock renouvelé toutes les semaines.",
    "mapillary": "TJj_xOuGvGEj4IPJzZ4PvA",
    "name": "SCOP Ding Fring",
    "note": "Voir https://wiki.openstreetmap.org/wiki/WikiProject_CircularEconomy pour des conseils de cartographie.",
    "opening_hours": "Mo-Fr 10:00-18:45; Sa 10:00-18:15",
    "operator": "SCOP Le Relais Atlantique",
    "recycling:clothes": "yes",
    "recycling:shoes": "yes",
    "second_hand": "only",
    "shop": "clothes",
    "source": "Mieux trier à Nantes 2019",
    "wheelchair": "yes"
  }
},
{
  "type": "node",
  "id": 4330830794,
  "lat": 44.2413643,
  "lon": 5.0733581,
  "tags": {
    "name": "Bouquiniste",
    "second_hand": "only",
    "shop": "books"
  }
},
{
  "type": "node",
  "id": 4330866293,
  "lat": 44.2413617,
  "lon": 5.0732964,
  "tags": {
    "name": "Fashion's Second Life",
    "second_hand": "only",
    "shop": "clothes"
  }
},
{
  "type": "node",
  "id": 4335668040,
  "lat": 44.2416673,
  "lon": 5.0739763,
  "tags": {
    "name": "Livres et Collections",
    "second_hand": "only",
    "shop": "books"
  }
},
{
  "type": "node",
  "id": 4337666646,
  "lat": 44.8173303,
  "lon": 5.7521403,
  "tags": {
    "description": "Atelier d'auto-réparation de cycles",
    "name": "Recycleart",
    "opening_hours": "Mo 13:00-19:00; We 14:00-16:00",
    "second_hand": "only",
    "service:bicycle:diy": "yes",
    "service:bicycle:repair": "yes",
    "service:bicycle:second_hand": "no",
    "shop": "bicycle"
  }
},
{
  "type": "node",
  "id": 4342490535,
  "lat": 43.6745011,
  "lon": 7.0054429,
  "tags": {
    "amenity": "givebox",
    "name": "Happy Give Box"
  }
},
{
  "type": "node",
  "id": 4382158533,
  "lat": 50.6429780,
  "lon": 3.0116415,
  "tags": {
    "contact:email": "envie-lomme@groupevitaminet.com",
    "contact:phone:sav": "+33 03 20 24 02 12",
    "level": "0",
    "name": "Envie Lomme",
    "opening_hours": "Mo-Sa 10:00-12:00,14:00-19:00",
    "phone": "+33 3 20 29 43 80",
    "second_hand": "only",
    "shop": "electronics",
    "website": "http://www.envienord.fr/index.php/magasins-electromenager/magasin-electromenager-lomme/",
    "wheelchair": "yes"
  }
},
{
  "type": "node",
  "id": 4382158534,
  "lat": 51.0411245,
  "lon": 2.4056852,
  "tags": {
    "addr:city": "Dunkerque",
    "addr:housenumber": "22",
    "addr:postcode": "59240",
    "addr:street": "Rue Paul Machy",
    "contact:email": "envie-rosendael@groupevitaminet.com",
    "contact:phone": "+33328590192",
    "contact:phone:sav": "+33321950614",
    "contact:website": "envienord.fr",
    "name": "Envie",
    "opening_hours": "Mo-Sa 10:00-12:00,14:00-19:00",
    "second_hand": "only",
    "shop": "electronics"
  }
},
{
  "type": "node",
  "id": 4395197525,
  "lat": 48.0163934,
  "lon": -4.5007118,
  "tags": {
    "clothes": "children",
    "name": "Ty Moutik",
    "second_hand": "only",
    "shop": "clothes",
    "wheelchair": "yes"
  }
},
{
  "type": "node",
  "id": 4410260120,
  "lat": 48.8404305,
  "lon": 2.3336833,
  "tags": {
    "name": "2roues1clic",
    "opening_hours": "Mo-Sa 10:00-19:00",
    "second_hand": "only",
    "shop": "motorcycle"
  }
},
{
  "type": "node",
  "id": 4416190413,
  "lat": 48.8378672,
  "lon": 2.3350321,
  "tags": {
    "email": "contact@laressourceriecreative.com",
    "name": "La Ressoucerie Créative",
    "opening_hours": "Tu-Fr 13:00-19:00, Sa 11:00-19:00, Su \"parfois\"",
    "phone": "+33 1 85 09 96 63",
    "second_hand": "only",
    "shop": "second_hand",
    "website": "https://www.laressourceriecreative.com/"
  }
},
{
  "type": "node",
  "id": 4436490005,
  "lat": 47.8410391,
  "lon": -0.3330995,
  "tags": {
    "charity": "yes",
    "contact:city": "Sablé-sur-Sarthe",
    "contact:postcode": "72300",
    "contact:street": "Rue Michel Vielle",
    "image": "https://koza.fr/wp-content/uploads/2017/03/sable-sur-sarthe_audit-energetique_batiment-tertiaire.jpg",
    "name": "Vesti-boutique (Croix Rouge)",
    "note": "Voir https://wiki.openstreetmap.org/wiki/WikiProject_CircularEconomy pour des conseils de cartographie.",
    "operator": "Association Croix Rouge",
    "recycling:clothes": "yes",
    "recycling:shoes": "yes",
    "second_hand": "only",
    "shop": "clothes"
  }
},
{
  "type": "node",
  "id": 4438960808,
  "lat": 46.8422308,
  "lon": -0.4920661,
  "tags": {
    "description": "Smartphones, ordinateurs portables, unités centrales reconditionnés par les Ateliers du Bocage - 100% fonctionnels et garantis 6 mois.",
    "image": "http://esspresso.fr/wp-content/uploads/2015/02/vitrine-bootique-v1.jpg",
    "name": "La Bootique",
    "second_hand": "only",
    "shop": "computer"
  }
},
{
  "type": "node",
  "id": 4457802266,
  "lat": 43.2999805,
  "lon": 5.3689278,
  "tags": {
    "addr:city": "Marseille",
    "addr:housenumber": "12",
    "addr:postcode": "13002",
    "addr:street": "Place de Lorette",
    "description": "L'association Histoires Sans Fin collecte, valorise et revend des meubles et des objets à petit prix.",
    "name": "Ressourcerie Histoires Sans Fin",
    "operator": "Association Histoires Sans Fin",
    "phone": "+33 4 91 31 79 54",
    "second_hand": "only",
    "shop": "second_hand",
    "website": "https://www.histoires-sans-fin.fr/"
  }
},
{
  "type": "node",
  "id": 4495727342,
  "lat": 47.2321400,
  "lon": -1.6521097,
  "tags": {
    "amenity": "recycling",
    "charity": "yes",
    "charity:description": "Créés par des membres d'Emmaûs, Envie regroupe désormais 50 entreprises, dont 2 en Loire Atlantique (Saint-Nazaire et Saint-Herblain), ce qui représente 90 salariés dans le département.",
    "contact:city": "Saint-Herblain",
    "contact:email": "magasin44sth@envie.org",
    "contact:housenumber": "18",
    "contact:phone": "+33 2 40 43 21 11",
    "contact:postcode": "44800",
    "contact:street": "rue Bobby Sands",
    "contact:website": "http://envie-44.envie.org/envie-nantes-st-herblain/",
    "description": "Les particuliers peuvent déposer en déchèteries ou ici leurs appareils électroménagers. C'est également un magasin qui présente les appareils électroménagers à prix abordables. Il y a aussi la réparation (vous repartez avec votre appareil).",
    "mapillary": "zstEd_nG0F6YV1MvlR7uSg",
    "name": "Envie 44",
    "network": "Envie",
    "note": "Voir https://wiki.openstreetmap.org/wiki/WikiProject_CircularEconomy pour des conseils de cartographie.",
    "opening_hours": "Mo-Sa 10:00-13:00,14:00-19:00",
    "operator": "SCOP Envie44",
    "phone": "+33 2 40 43 82 37",
    "recycling:electrical_items": "yes",
    "recycling_type": "centre",
    "second_hand": "only",
    "shop": "home appliance",
    "source": "Visite des locaux par MieuxTrierANantes 01/15",
    "vending": "électroménager;réfrigérateur;télévision;lave-vaisselle;congélateur",
    "website": "http://envie-44.envie.org"
  }
},
{
  "type": "node",
  "id": 4512007628,
  "lat": 47.2677170,
  "lon": -1.4848566,
  "tags": {
    "contact:website": "http://www.planete-occasion-nantes.fr/",
    "image": "https://static4.pagesjaunes.fr/media/ugc/planete_occasion_04402600_172842999",
    "name": "Planète Occasion",
    "opening_hours": "Mo-Sa 09:30-12:00,14:00-19:00",
    "operator": "Entreprise Planète Occasion",
    "second_hand": "only",
    "shop": "general"
  }
},
{
  "type": "node",
  "id": 4524886662,
  "lat": 47.7195844,
  "lon": -1.3765132,
  "tags": {
    "amenity": "deposit_sale",
    "clothes": "women;children",
    "contact:city": "Châteaubriant",
    "contact:facebook": "https://www.facebook.com/pages/category/Clothing-Store/Nous-et-nos-chouchous-D%C3%A9p%C3%B4t-Vente-123827131002355/",
    "contact:housenumber": "6",
    "contact:phone": "+33 2 40 81 83 24",
    "contact:postcode": "44110",
    "contact:street": "rue de Couere",
    "description": "Dépôt-Vente, magasin de vêtements pour femmes, enfants, espace puériculture et jeux d'éveil.",
    "image": "http://www.mairie-chateaubriant.fr/medias/2017/11/nous-et-nos-chouchous-311x208.jpg",
    "name": "Nous et nos chouchous",
    "note": "Voir https://wiki.openstreetmap.org/wiki/WikiProject_CircularEconomy pour conseils de cartographie.",
    "opening_hours": "Tu-Sa 9:30-12:00,14:15-19:00",
    "recycling:clothes": "yes",
    "recycling:shoes": "yes",
    "second_hand": "only",
    "shop": "clothes"
  }
},
{
  "type": "node",
  "id": 4621834880,
  "lat": 45.7790458,
  "lon": 3.0844946,
  "tags": {
    "name": "RoomSixteen",
    "opening_hours": "Tu-Sa 14:00-18:00",
    "second_hand": "only",
    "shop": "clothes"
  }
},
{
  "type": "node",
  "id": 4626090573,
  "lat": 49.4405342,
  "lon": 1.0928313,
  "tags": {
    "addr:city": "Rouen",
    "addr:housenumber": "54 D",
    "addr:postcode": "76000",
    "addr:street": "Rue de la Champmeslé",
    "name": "Kilo Shop",
    "phone": "+33 2 35 00 56 15",
    "second_hand": "only",
    "shop": "clothes",
    "website": "http://kilo-shop.fr",
    "wheelchair": "yes"
  }
},
{
  "type": "node",
  "id": 4686173037,
  "lat": 49.1176389,
  "lon": 6.1824633,
  "tags": {
    "name": "Le Bardak - Friperie et Cie",
    "second_hand": "only",
    "shop": "clothes"
  }
},
{
  "type": "node",
  "id": 4717481405,
  "lat": 49.4229387,
  "lon": 1.0802494,
  "tags": {
    "addr:city": "Rouen",
    "addr:housenumber": "110",
    "addr:postcode": "76000",
    "addr:street": "Rue d'Elbeuf",
    "name": "Envie Normandie",
    "payment:cash": "yes",
    "phone": "+33 2 35 72 84 44",
    "second_hand": "only",
    "shop": "electronics",
    "website": "http://normandie.envie.org"
  }
},
{
  "type": "node",
  "id": 4729388955,
  "lat": 44.8747424,
  "lon": 0.2460503,
  "tags": {
    "second_hand": "only",
    "shop": "clothes"
  }
},
{
  "type": "node",
  "id": 4734545682,
  "lat": 45.7815070,
  "lon": 4.8056633,
  "tags": {
    "contact:email": "atelierchangedechaine@gmail.com",
    "contact:website": "http://www.changedechaine.org/",
    "description": "Atelier Association de Réparation et de Vente de Cycles d'Occasion",
    "name": "Atelier Vélo Change de Chaîne",
    "opening_hours": "We-Sa 15:00-19:00",
    "second_hand": "only",
    "service": "repair",
    "service:bicycle:diy": "yes",
    "shop": "bicycle"
  }
},
{
  "type": "node",
  "id": 4755206663,
  "lat": 45.9572423,
  "lon": 1.3997470,
  "tags": {
    "name": "Méli-Mélo",
    "opening_hours": "Tu-Fr 10:00-12:00,15:00-18:00; Th 10:00-12:00; Sa 10:00-12:30",
    "second_hand": "only",
    "shop": "clothes"
  }
},
{
  "type": "node",
  "id": 4783664527,
  "lat": 48.3905400,
  "lon": -4.4914678,
  "tags": {
    "contact:facebook": "https://www.facebook.com/boutdeguimauvebrest/",
    "contact:phone": "+33 2 98 80 17 65",
    "name": "Bout d'Guimauve",
    "second_hand": "only",
    "shop": "clothes"
  }
},
{
  "type": "node",
  "id": 4811514136,
  "lat": 48.1440125,
  "lon": 6.6244117,
  "tags": {
    "second_hand": "only",
    "shop": "car"
  }
},
{
  "type": "node",
  "id": 4969139352,
  "lat": 48.7089168,
  "lon": 6.1845710,
  "tags": {
    "name": "Secrets d'Armoire",
    "second_hand": "only",
    "shop": "clothes",
    "source": "survey"
  }
},
{
  "type": "node",
  "id": 4973168537,
  "lat": 46.9477512,
  "lon": 4.2987844,
  "tags": {
    "name": "Livres d'occasion",
    "second_hand": "only",
    "shop": "books"
  }
},
{
  "type": "node",
  "id": 5063833111,
  "lat": 49.1163343,
  "lon": 6.1830202,
  "tags": {
    "contact:facebook": "https://www.facebook.com/Le-dressing-de-L%C3%A9a-METZ-526902484039639/",
    "name": "Le dressing de Léa",
    "second_hand": "only",
    "shop": "clothes",
    "source": "survey"
  }
},
{
  "type": "node",
  "id": 5163090918,
  "lat": 50.6298313,
  "lon": 3.0553519,
  "tags": {
    "name": "Cash Converters",
    "second_hand": "only",
    "shop": "second_hand",
    "source": "survey",
    "survey:date": "2017-10"
  }
},
{
  "type": "node",
  "id": 5165521088,
  "lat": 48.8581804,
  "lon": 2.3521442,
  "tags": {
    "name": "Kilo-Shop Paris Le Marais",
    "second_hand": "only",
    "shop": "clothes",
    "wheelchair": "limited"
  }
},
{
  "type": "node",
  "id": 5178193115,
  "lat": 48.6299872,
  "lon": 2.4076596,
  "tags": {
    "contact:addr": "14 Avenue du Bos de l'Épine",
    "contact:city": "Courcouronnes",
    "contact:phone": "+33 626304031",
    "contact:postcode": "91080",
    "contact:website": "https://www.canalcycles.fr/",
    "name": "Canalcycles",
    "second_hand": "only",
    "service:bicycle:repair": "yes",
    "service:bicycle:second_hand": "yes",
    "shop": "bicycle"
  }
},
{
  "type": "node",
  "id": 5240956475,
  "lat": 48.3196766,
  "lon": 0.8051901,
  "tags": {
    "amenity": "recycling",
    "charity": "yes",
    "contact:city": "Nogent-le-Rotrou",
    "contact:email": "nogent@ressourcerie-recupetco.fr",
    "contact:housenumber": "111",
    "contact:phone": "+33 6 34 24 35 10",
    "contact:postcode": "28400",
    "contact:street": "Rue de la Bretonnerie",
    "contact:website": "http://ecocyclerie-sosrecup.fr/",
    "description": "La ressourcerie Récup & Co permet de développer une dynamique sociale, économique et locale et contribue au respect de l’environnement en donnant une deuxième vie à des objets destinés à être jetés.",
    "name": "Ressourcerie Récup & Co",
    "note": "Voir https://wiki.openstreetmap.org/wiki/WikiProject_CircularEconomy pour des conseils de cartographie.",
    "opening_hours": "We 14:00-18:00; Sa 10:00-18:00",
    "operator": "Association Récup & Co",
    "recycling:bicycles": "yes",
    "recycling:books": "yes",
    "recycling:cds": "yes",
    "recycling:clothes": "yes",
    "recycling:computers": "yes",
    "recycling:dishes": "yes",
    "recycling:furniture": "yes",
    "recycling:interior_decoration": "yes",
    "recycling:small_electrical_appliances": "yes",
    "second_hand": "only",
    "shop": "general"
  }
},
{
  "type": "node",
  "id": 5263954645,
  "lat": 48.8911853,
  "lon": 2.2886418,
  "tags": {
    "addr:housenumber": "34",
    "name": "Le Petit Troqueur",
    "opening_hours": "Tu-Fr 10:00-18:00; Th off",
    "second_hand": "only",
    "shop": "clothes",
    "wheelchair": "no"
  }
},
{
  "type": "node",
  "id": 5273955207,
  "lat": 48.8689361,
  "lon": 2.4050912,
  "tags": {
    "name": "Ding Fring",
    "second_hand": "only",
    "shop": "clothes",
    "wheelchair": "yes"
  }
},
{
  "type": "node",
  "id": 5274012839,
  "lat": 48.2975716,
  "lon": -1.7931935,
  "tags": {
    "amenity": "recycling",
    "charity": "yes",
    "image": "https://emmaus-rennes.fr/images/imagesEmmaus/entree-hede01.jpg",
    "name": "Emmaüs Hédé",
    "note": "Voir https://wiki.openstreetmap.org/wiki/WikiProject_CircularEconomy pour des conseils de cartographie.",
    "opening_hours": "We,Sa 09:00-12:00,14:00-17:30; Fr,Su 14:00-17:30; Apr-Sep We,Sa 09:00-12:00,14:00-18:00; Apr-Sep Fr,Su 14:00-18:00",
    "operator": "Association Emmaüs",
    "recycling:bicycles": "yes",
    "recycling:books": "yes",
    "recycling:clothes": "yes",
    "recycling:computers": "yes",
    "recycling:dishes": "yes",
    "recycling:furniture": "yes",
    "recycling:interior_decoration": "yes",
    "recycling:shoes": "yes",
    "recycling:small_electrical_appliances": "yes",
    "recycling:toys": "yes",
    "recycling_type": "centre",
    "second_hand": "only",
    "shop": "general",
    "vending": "meuble;vêtement;électroménager;radio;HiFi;informatique;livres;vaisselle;bibelot;disque;jouet;tableau",
    "website": "https://emmaus-rennes.fr/index.php/les-sites/hede"
  }
},
{
  "type": "node",
  "id": 5287463328,
  "lat": 50.6299356,
  "lon": 3.0555887,
  "tags": {
    "name": "Funny Vintage",
    "second_hand": "only",
    "shop": "clothes"
  }
},
{
  "type": "node",
  "id": 5295465587,
  "lat": 49.1198244,
  "lon": 6.1822512,
  "tags": {
    "contact:housenumber": "10",
    "contact:phone": "+33 3 55809291",
    "contact:street": "Rue de la Basse-Seille",
    "description": "Se déplacer autrement dans Metz et son agglomération. - Découvrir des itinéraires malins. - Bien s'équiper pour ses déplacements à vélo. - Rouler en sécurité. - Découvrir Metz et son agglomération lors des balades mensuelles",
    "email": "metz-a-velo@fubicy.org",
    "facebook": "http://facebook.com/Metz-à-Vélo-119795988053739",
    "name": "Metz à Vélo",
    "opening_hours": "We-Fr 13:00-19:00; Sa 09:00-12:30,13:30-18:00",
    "second_hand": "only",
    "service:bicycle:diy": "yes",
    "service:bicycle:pump": "yes",
    "service:bicycle:second_hand": "yes",
    "shop": "bicycle",
    "website": "http://metzavelo.fr"
  }
},
{
  "type": "node",
  "id": 5312156973,
  "lat": 48.8609675,
  "lon": 2.3429396,
  "tags": {
    "name": "La Galcante",
    "second_hand": "only",
    "shop": "books"
  }
},
{
  "type": "node",
  "id": 5318366322,
  "lat": 45.8414211,
  "lon": 1.2596265,
  "tags": {
    "addr:housenumber": "78",
    "addr:postcode": "87000",
    "addr:street": "Rue Armand Barbes",
    "name": "Salle de vente Emmaüs 87",
    "opening_hours": "We,Th,Sa 14:30-18:00, Sa 09:00-12:00",
    "second_hand": "only",
    "shop": "charity",
    "website": "http://www.emmaus87.fr/"
  }
},
{
  "type": "node",
  "id": 5323787819,
  "lat": 47.7559021,
  "lon": -3.3660597,
  "tags": {
    "addr:housenumber": "13b",
    "addr:street": "Rue Beauvais",
    "email": "contact@syklett.bzh",
    "name": "L'Abri Syklett",
    "operator": "Collectif Syklett",
    "phone": "+33 7 68 07 41 02",
    "second_hand": "only",
    "service:bicycle:diy": "yes",
    "service:bicycle:repair": "yes",
    "shop": "bicycle",
    "source": "survey",
    "website": "http://syklett.bzh"
  }
},
{
  "type": "node",
  "id": 5333008921,
  "lat": 46.6744947,
  "lon": 5.5524261,
  "tags": {
    "addr:city": "Lons-le-Saunier",
    "addr:housenumber": "33",
    "addr:postcode": "39000",
    "addr:street": "Rue Tamisier",
    "clothes": "women;second_hand",
    "name": "La boutique de Karine",
    "phone": "+33 3 84 43 32 38",
    "second_hand": "only",
    "shop": "clothes",
    "website": "http://www.laboutiquedekarine.com/"
  }
},
{
  "type": "node",
  "id": 5354330395,
  "lat": 43.9516664,
  "lon": 4.8170606,
  "tags": {
    "contact:website": "http://www.camili-booksandtea.com",
    "name": "Camili Books & Tea",
    "opening_hours": "Tu-Sa 12:00-19:00",
    "second_hand": "only",
    "shop": "books",
    "source": "survey",
    "survey:date": "2019-08-02"
  }
},
{
  "type": "node",
  "id": 5356614061,
  "lat": 50.4817465,
  "lon": 1.5928825,
  "tags": {
    "addr:city": "Cucq",
    "addr:housenumber": "1112",
    "addr:postcode": "62780",
    "addr:street": "Boulevard Edmond Labrasse",
    "name": "Dépot Vente de la Côte d'Opale",
    "opening_hours": "Tu-Su 14:00-18:30",
    "second_hand": "only",
    "shop": "second_hand"
  }
},
{
  "type": "node",
  "id": 5371240517,
  "lat": 45.7968439,
  "lon": 1.1412663,
  "tags": {
    "addr:city": "Aixe-sur-Vienne",
    "addr:housenumber": "8",
    "addr:postcode": "87700",
    "addr:street": "Avenue du Président Wilson",
    "name": "Secours Populaire",
    "opening_hours": "We 14:30-17:00",
    "operator": "Secours Populaire",
    "second_hand": "only",
    "shop": "charity",
    "website": "http://www.spf87.org/",
    "wheelchair": "no"
  }
},
{
  "type": "node",
  "id": 5403360833,
  "lat": 45.7956350,
  "lon": 1.1351825,
  "tags": {
    "addr:city": "Aixe-sur-Vienne",
    "addr:housenumber": "3",
    "addr:postcode": "87700",
    "addr:street": "Rue Gambetta",
    "contact:facebook": "https://www.facebook.com/Le-troc-des-Bambins-123307207823725/",
    "contact:phone": "+33 6 24 02 42 14",
    "name": "Le Troc des Bambins",
    "operator": "Agnès Auvert",
    "second_hand": "only",
    "shop": "second_hand",
    "wheelchair": "no"
  }
},
{
  "type": "node",
  "id": 5425597101,
  "lat": 44.5183426,
  "lon": 4.3232230,
  "tags": {
    "name": "Les Recycl'Arts",
    "opening_hours": "Tu-Fr 09:00-13:00, 14:00-17:00; Sa 10:00-13:00, 14:00-18:00",
    "second_hand": "only",
    "shop": "second_hand",
    "website": "https://lesrecyclarts.blogspot.fr"
  }
},
{
  "type": "node",
  "id": 5435321844,
  "lat": 50.6272050,
  "lon": 3.0502879,
  "tags": {
    "addr:housenumber": "8",
    "addr:street": "Rue Saint-pierre Saint-Paul",
    "description": "Friperie solidaire proposant vêtements et accessoires tendance ou vintage à prix réduits pour tous les âges.",
    "name": "Ding Fring",
    "opening_hours": "Mo-Sa 10:00-12:30, 14:00-19:00",
    "phone": "+33 3 28 07 32 81",
    "second_hand": "only",
    "shop": "clothes",
    "website": "https://www.lerelais.org/aussi.php?page=ding_fring"
  }
},
{
  "type": "node",
  "id": 5438416968,
  "lat": 43.3109654,
  "lon": -0.3653104,
  "tags": {
    "addr:city": "Pau",
    "addr:postcode": "64000",
    "addr:street": "Avenue du Président Kennedy",
    "email": "lerelais64@lerelais.org",
    "fax": "+335 64 27 03 36",
    "name": "Ding Fring",
    "opening_hours": "Mo-Sa 10:00-19:00",
    "operator": "Le Relais 64",
    "phone": "+335 47 41 94 18",
    "second_hand": "only",
    "shop": "clothes",
    "website": "http://www.lerelais.org/aussi.php?page=ding_fring"
  }
},
{
  "type": "node",
  "id": 5443350694,
  "lat": 43.3211207,
  "lon": -0.3610322,
  "tags": {
    "addr:city": "Pau",
    "addr:housenumber": "271",
    "addr:postcode": "64000",
    "addr:street": "Boulevard de la Paix",
    "email": "boutiquebbco@sfr.fr",
    "name": "Bébé Clin d'oeil",
    "opening_hours": "Mo-Fr 09:00-12:00,14:00-19:00; sa 09:30-12:00; Dec 25 off",
    "phone": "+335 59 80 25 57",
    "second_hand": "only",
    "shop": "yes",
    "website": "http://www.bebeclindoeil.fr/"
  }
},
{
  "type": "node",
  "id": 5443406061,
  "lat": 43.2976873,
  "lon": -0.3682507,
  "tags": {
    "addr:city": "Pau",
    "addr:housenumber": "5",
    "addr:postcode": "64000",
    "addr:street": "Rue Alexander Taylor",
    "name": "BricOTruc",
    "office": "association",
    "phone": "+336 68 32 49 29",
    "second_hand": "only",
    "website": "http://www.bricotruc.fr/"
  }
},
{
  "type": "node",
  "id": 5457767819,
  "lat": 43.2988670,
  "lon": -0.3689198,
  "tags": {
    "addr:city": "Pau",
    "addr:postcode": "64000",
    "addr:street": "Passage des Halles",
    "name": "Le Dépôt-Vente de Sabine",
    "opening_hours": "Tu-Sa 10:00-12:00,14:00-19:00",
    "phone": "+33 5 59 14 97 13",
    "second_hand": "only",
    "shop": "clothes"
  }
},
{
  "type": "node",
  "id": 5464332914,
  "lat": 43.2948545,
  "lon": -0.3659726,
  "tags": {
    "addr:city": "Pau",
    "addr:housenumber": "3",
    "addr:postcode": "64000",
    "addr:street": "Rue Léon Daran",
    "email": "depot.vente.margot@gmail.com",
    "name": "Dépôt Vente Margot",
    "opening_hours": "Tu-Sa 10:00-12:30,14:00-19:00",
    "phone": "+335 59 82 92 80",
    "second_hand": "only",
    "shop": "clothes",
    "website": "http://www.margot-depotvente.fr/"
  }
},
{
  "type": "node",
  "id": 5464516915,
  "lat": 43.3242984,
  "lon": -0.4405508,
  "tags": {
    "addr:city": "Lescar",
    "addr:housenumber": "5",
    "addr:postcode": "64230",
    "addr:street": "Chemin des Trois Ponts",
    "name": "Envie Pau",
    "opening_hours": "Mo-Sa 10:00-12:30,14:00-18:30",
    "phone": "+335 59 32 41 53",
    "second_hand": "only",
    "shop": "electronics",
    "website": "http://pau.envie.org/"
  }
},
{
  "type": "node",
  "id": 5464965294,
  "lat": 43.2970779,
  "lon": -0.3726349,
  "tags": {
    "addr:city": "Pau",
    "addr:housenumber": "9",
    "addr:postcode": "64000",
    "addr:street": "Rue Tran",
    "email": "lespatatipatata2015@gmail.com",
    "name": "Patati Patata",
    "opening_hours": "Tu-Sa 11:00-14:00,15:00-19:00",
    "phone": "+336 22 04 49 50",
    "second_hand": "only",
    "shop": "baby_goods",
    "website": "https://lespatatipatata201.wixsite.com/patatipatata"
  }
},
{
  "type": "node",
  "id": 5475360925,
  "lat": 43.3031075,
  "lon": -0.3713045,
  "tags": {
    "addr:city": "Pau",
    "addr:housenumber": "3",
    "addr:postcode": "64000",
    "addr:street": "Rue Bourbaki",
    "name": "La maison des arts",
    "second_hand": "only",
    "shop": "antiques"
  }
},
{
  "type": "node",
  "id": 5485469898,
  "lat": 43.2951179,
  "lon": -0.3703645,
  "tags": {
    "addr:city": "Pau",
    "addr:housenumber": "5",
    "addr:postcode": "64000",
    "addr:street": "Rue Saint-Louis",
    "name": "Le D Pau",
    "opening_hours": "Mo-Sa 14:00-18:00",
    "second_hand": "only",
    "shop": "second_hand"
  }
},
{
  "type": "node",
  "id": 5485469899,
  "lat": 43.2947368,
  "lon": -0.3704160,
  "tags": {
    "addr:city": "Pau",
    "addr:housenumber": "2 bis",
    "addr:postcode": "64000",
    "addr:street": "Rue Saint-Louis",
    "description": "Vêtements et accessoires de marques et articles griffés de seconde main",
    "name": "Astuces de Lydie",
    "opening_hours": "Tu-Sa 10:00-13:00,14:00-19:00",
    "phone": "+339 87 01 83 89",
    "second_hand": "only",
    "shop": "second_hand",
    "website": "http://astucesdelydie.over-blog.com/"
  }
},
{
  "type": "node",
  "id": 5501839701,
  "lat": 48.8582433,
  "lon": 2.3676411,
  "tags": {
    "name": "Odeon",
    "second_hand": "only",
    "shop": "photo",
    "wheelchair": "no"
  }
},
{
  "type": "node",
  "id": 5528298984,
  "lat": 44.1622920,
  "lon": 4.0970104,
  "tags": {
    "name": "Cass'ARPO",
    "phone": "+33466557939",
    "second_hand": "only",
    "shop": "car_parts"
  }
},
{
  "type": "node",
  "id": 5528448781,
  "lat": 43.6876790,
  "lon": 1.4517636,
  "tags": {
    "addr:housenumber": "16",
    "name": "Casse auto Hernandez",
    "opening_hours": "Mo-Fr 09:00-12:00, 14:00-18:00",
    "phone": "+33561700970",
    "second_hand": "only",
    "shop": "car_parts"
  }
},
{
  "type": "node",
  "id": 5528857252,
  "lat": 44.4909551,
  "lon": 4.2722540,
  "tags": {
    "name": "Les Reskapés",
    "opening_hours": "Tu-Sa 9:30-17:30",
    "phone": "+33640219910",
    "second_hand": "only",
    "shop": "second_hand"
  }
},
{
  "type": "node",
  "id": 5535894756,
  "lat": 48.9110633,
  "lon": 2.3326676,
  "tags": {
    "name": "Occasion Privée",
    "second_hand": "only",
    "shop": "car"
  }
},
{
  "type": "node",
  "id": 5581953147,
  "lat": 48.1105218,
  "lon": -1.6744277,
  "tags": {
    "image": "http://www.trocmod.fr/images/vitrine_rennes.jpg",
    "name": "Troc Mod",
    "second_hand": "only",
    "shop": "clothes"
  }
},
{
  "type": "node",
  "id": 5588586194,
  "lat": 48.7990408,
  "lon": 2.4855012,
  "tags": {
    "second_hand": "only",
    "shop": "car"
  }
},
{
  "type": "node",
  "id": 5606907937,
  "lat": 50.3589847,
  "lon": 3.5193349,
  "tags": {
    "name": "Bouquinerie Lefebvre",
    "opening_hours": "Tu-Fr 14:30-19:00; Sa 09:30-12:00,14:30-19:00",
    "second_hand": "only",
    "shop": "books"
  }
},
{
  "type": "node",
  "id": 5607189375,
  "lat": 48.8829790,
  "lon": 2.3458252,
  "tags": {
    "addr:housenumber": "27-29",
    "addr:postcode": "75009",
    "addr:street": "Boulevard de Rochechouart",
    "name": "Emmaüs",
    "opening_hours": "We, Fr 13:30-18:30; Sa 10:00-18:30",
    "second_hand": "only",
    "shop": "charity"
  }
},
{
  "type": "node",
  "id": 5644129275,
  "lat": 45.7703636,
  "lon": 4.8604049,
  "tags": {
    "email": "contact@ewigo-lyon6.fr",
    "name": "Ewigo",
    "opening_hours": "Mo-Sa 09:00-18:00",
    "phone": "+33 4 78 26 94 58",
    "second_hand": "only",
    "shop": "car",
    "website": "https://www.ewigo-lyon6.fr/"
  }
},
{
  "type": "node",
  "id": 5721228406,
  "lat": 48.5108857,
  "lon": -4.0724198,
  "tags": {
    "addr:housenumber": "21",
    "addr:street": "Rue d'Arvor",
    "name": "Maman et moi",
    "second_hand": "only",
    "shop": "clothes",
    "wheelchair": "yes"
  }
},
{
  "type": "node",
  "id": 5721806511,
  "lat": 47.2091543,
  "lon": -1.5692144,
  "tags": {
    "amenity": "recycling",
    "charity": "yes",
    "contact:city": "Nantes",
    "contact:housenumber": "5",
    "contact:phone": "+33 2 40 69 13 89",
    "contact:postcode": "44100",
    "contact:street": "rue Charles Brunellière",
    "contact:website": "https://www.lerelais.org/aussi.php?page",
    "description": "Les boutiques 'Ding Fring' proposent certains des vêtements déposés dans les bornes Le Relais : pull, lingerie, vestes, jupes, pantalons, laine, ceintures, vêtement de travail, livres, peluches... Un quart du stock renouvelé toutes les semaines.",
    "level": "0",
    "name": "Ding-Fring Chantier Navals",
    "note": "An indication for contributors who are filling the data  Voir https://wiki.openstreetmap.org/wiki/WikiProject_CircularEconomy pour conseils de cartographie. ",
    "opening_hours": "Mo-Fr 10:00-18:45;Sa 10:00-18:15",
    "operator": "SCOP Le Relais Atlantique",
    "recycling:clothes": "yes",
    "recycling:shoes": "yes",
    "second_hand": "only",
    "shop": "clothes",
    "source": "survey;Association Mieux trier à Nantes",
    "survey:date": "2018-06-27",
    "vending": "vêtement;linge;pull;pantalon;veste;chaussette;chemisier;Tshirt;chaussure;couverture;drap;couette;layette;boy;sous-vêtement"
  }
},
{
  "type": "node",
  "id": 5730518147,
  "lat": 45.7520363,
  "lon": 4.8492497,
  "tags": {
    "name": "Frip'Attitude Emmaüs Vêtement",
    "opening_hours": "Mo-Sa 10:00-12:00, Mo-Sa 14:00-18:30,",
    "phone": "+33 4 37 70 80 45",
    "second_hand": "only",
    "shop": "charity"
  }
},
{
  "type": "node",
  "id": 5734168264,
  "lat": 45.6760259,
  "lon": 4.9699850,
  "tags": {
    "second_hand": "only",
    "shop": "car"
  }
},
{
  "type": "node",
  "id": 5747890384,
  "lat": 43.6102480,
  "lon": 3.8788940,
  "tags": {
    "name": "D'or & Déjà",
    "second_hand": "only",
    "shop": "clothes"
  }
},
{
  "type": "node",
  "id": 5747890399,
  "lat": 43.6095994,
  "lon": 3.8786546,
  "tags": {
    "contact:facebook": "https://fr-fr.facebook.com/Les-Puces-Dor%C3%A9es-150391695001688/",
    "description": "Dépôt vente de vêtements",
    "name": "Les Puces Dorées",
    "second_hand": "only",
    "shop": "clothes"
  }
},
{
  "type": "node",
  "id": 5792911699,
  "lat": 47.1647835,
  "lon": -1.2706811,
  "tags": {
    "amenity": "recycling",
    "charity": "yes",
    "contact:city": "Vallet",
    "contact:email": "patmouille@orange.fr",
    "contact:facebook": "https://www.facebook.com/patmouille44/",
    "contact:housenumber": "8",
    "contact:phone": "+33 2 40 36 39 89",
    "contact:postcode": "44330",
    "contact:street": "route de la Loire",
    "contact:website": "http://www.patmouille.fr/",
    "description": "textiles uniquement",
    "image": "https://static.actu.fr/uploads/2014/06/patmouilleherv2-854x706.jpg",
    "name": "Pat'mouille",
    "note": "Voir https://wiki.openstreetmap.org/wiki/WikiProject_CircularEconomy pour des conseils de cartographie.",
    "opening_hours": "We 14:30-18:00; Sa 9:30-12:30, 14:30-18:00",
    "operator": "Association Pat'mouille",
    "recycling:clothes": "yes",
    "recycling:shoes": "yes",
    "second_hand": "only",
    "shop": "clothes",
    "source": "cadastre-dgi-fr source : Direction Générale des Finances Publiques - Cadastre. Mise à jour : 2018;association Mieux trier à Nantes 08/2019"
  }
},
{
  "type": "node",
  "id": 5851216267,
  "lat": 47.3065958,
  "lon": 5.0185324,
  "tags": {
    "amenity": "givebox"
  }
},
{
  "type": "node",
  "id": 5859349029,
  "lat": 47.2842202,
  "lon": 5.0175044,
  "tags": {
    "name": "envie",
    "opening_hours": "Mo-Sa 10:00-12:00,14:00-19:00",
    "phone": "+333 80 59 96 80",
    "second_hand": "only",
    "shop": "appliance",
    "website": "http://www.envie.org/"
  }
},
{
  "type": "node",
  "id": 5927530565,
  "lat": 45.1379316,
  "lon": 5.6954107,
  "tags": {
    "addr:city": "Le Pont-de-Claix",
    "addr:housenumber": "23",
    "addr:postcode": "38800",
    "addr:street": "Rue Denis Papin",
    "name": "ACRP Automobiles",
    "office": "company",
    "second_hand": "only",
    "shop": "car"
  }
},
{
  "type": "node",
  "id": 5960568554,
  "lat": 50.6322993,
  "lon": 3.0664678,
  "tags": {
    "name": "La Bouquinerie des Flandres",
    "opening_hours": "Tu-Fr 13:00-19:00; Sa 10:00-19:00",
    "second_hand": "only",
    "shop": "books"
  }
},
{
  "type": "node",
  "id": 5985563355,
  "lat": 4.9316601,
  "lon": -52.3271567,
  "tags": {
    "name": "Guyane Occasions",
    "second_hand": "only",
    "shop": "car"
  }
},
{
  "type": "node",
  "id": 5993628705,
  "lat": 48.2984539,
  "lon": 5.8447707,
  "tags": {
    "name": "Alauto",
    "second_hand": "only",
    "shop": "car"
  }
},
{
  "type": "node",
  "id": 5995955278,
  "lat": 47.2187884,
  "lon": -1.5507422,
  "tags": {
    "amenity": "recycling",
    "charity": "yes",
    "contact:city": "Nantes",
    "contact:email": "contact@stations-services.org",
    "contact:facebook": "https://www.facebook.com/pg/GrandMagasinNantes",
    "contact:housenumber": "4",
    "contact:phone": "+33 9 6665 1244",
    "contact:postcode": "44000",
    "contact:street": "rue de l'Ėvêché",
    "contact:website": "https://grandmagasin.org",
    "description": "Recyclerie du centre-ville de Nantes dédiée à la seconde vie des produits",
    "mapillary": "C213uols7ZzJxCNPFSSYVA",
    "name": "Le Grand Magasin",
    "note": "Voir https://wiki.openstreetmap.org/wiki/WikiProject_CircularEconomy pour des conseils de cartographie.",
    "opening_hours": "Tu-Sa 10:00-14:00,15:00-19:00",
    "operator": "Association Station Services",
    "second_hand": "only",
    "shop": "general",
    "source": "Visite réalisée le 04/2018 par  MieuxTrierANantes puis relecture par StationsServices",
    "vending": "petit meuble;bibelot;décoration;disque;cd;dvd;livre;bd;jouet"
  }
},
{
  "type": "node",
  "id": 6009530754,
  "lat": 43.2989304,
  "lon": -0.3674596,
  "tags": {
    "addr:city": "Pau",
    "addr:housenumber": "56",
    "addr:postcode": "64000",
    "addr:street": "Rue Émile Guichenné",
    "clothes": "women;occasion;friperie;children;men;zérodéchet",
    "description": "Frip'20âge est une association, de loi 1901, à but non lucratif, sans subvention, qui vise à luter contre le gaspillage textile et contre l'isolement des gens. Petit bugdet (1-10€)\nCette boutique propose aussi des objets 0déchet de la créatrice Marilucine",
    "email": "frip20ageassociation@yahoo.com",
    "name": "Frip' 20 âge",
    "opening_hours": "Mo 14:00-19:00; Tu-Sa 10:30-19:00; We 10:30-13:00; Fr 10:30-12:30,14:30-19:00",
    "phone": "+33 6 27 31 27 79",
    "second_hand": "only",
    "shop": "clothes"
  }
},
{
  "type": "node",
  "id": 6009883858,
  "lat": 43.9452452,
  "lon": 4.8074018,
  "tags": {
    "name": "Dépôt-vente",
    "second_hand": "only",
    "shop": "second_hand",
    "source": "survey"
  }
},
{
  "type": "node",
  "id": 6017733087,
  "lat": 47.2185205,
  "lon": -1.5613262,
  "tags": {
    "contact:phone": "+33 2 40082120",
    "contact:website": "https://www.livre-rare-book.com/c/b/Guimard",
    "name": "Librairie Guimard",
    "opening_hours": "Tu-Sa 10:00-12:30, 14:30-19:00",
    "second_hand": "only",
    "shop": "books",
    "survey:date": "2018-10-27",
    "wheelchair": "no"
  }
},
{
  "type": "node",
  "id": 6025861125,
  "lat": 45.6310496,
  "lon": 4.4571740,
  "tags": {
    "addr:city": "Saint-Symphorien-sur-Coise",
    "addr:housenumber": "181",
    "addr:postcode": "69590",
    "addr:street": "Boulevard du 11 Novembre",
    "email": "contact@ressourcerie-lebonplan.fr",
    "facebook": "https://www.facebook.com/RessourceriedesMontsduLyonnais",
    "name": "Ressourcerie des Monts du Lyonnais",
    "opening_hours": "We 09:00-12:00; Sa 09:00-12:00",
    "second_hand": "only",
    "shop": "second_hand",
    "website": "http://ressourcerie-lebonplan.fr"
  }
},
{
  "type": "node",
  "id": 6037736148,
  "lat": 47.2141137,
  "lon": -1.5657282,
  "tags": {
    "addr:street": "clothes",
    "amenity": "store",
    "clothes": "women",
    "collection_times": "Tu, Th, Fr 11:00-13:00, 15:00-17:00",
    "contact:housenumber": "10",
    "contact:phone": "+33 2 40 69 13 95",
    "contact:postcode": "44000",
    "contact:street": "NANTES",
    "contact:website": "http://www.trocetchic-nantes.com",
    "description": "Cette boutique est un dépôt-vente de prêt-à-porter pour femme proposant vêtements, bijoux et accessoires. Tous les prix et toutes les marques.",
    "image": "https://static4.pagesjaunes.fr/media/vignette/AAA2BEMJGYAM-10001.gif",
    "name": "Troc & Chic",
    "note": "Voir https://wiki.openstreetmap.org/wiki/WikiProject_CircularEconomy pour conseils de cartographie.",
    "opening_hours": "Tu-Fr 10:00-13:00,14:00-19:00",
    "second_hand": "only",
    "shop": "clothes",
    "survey:date": "2018-10-30"
  }
},
{
  "type": "node",
  "id": 6038660560,
  "lat": 47.4497280,
  "lon": 6.8391326,
  "tags": {
    "second_hand": "only",
    "shop": "car"
  }
},
{
  "type": "node",
  "id": 6038809395,
  "lat": 44.3648464,
  "lon": 2.5759290,
  "tags": {
    "addr:street": "Route de la Vieille Gare",
    "contact:website": "https://www.skidoccasion.com/fr/",
    "name": "Ski d'oc",
    "second_hand": "only",
    "shop": "ski",
    "source": "survey 2018"
  }
},
{
  "type": "node",
  "id": 6041818801,
  "lat": 47.2134699,
  "lon": -1.5643710,
  "tags": {
    "amenity": "deposit_sale",
    "clothes": "women",
    "contact:city": "NANTES",
    "contact:email": "les.songes.nantes@gmail.com",
    "contact:housenumber": "3",
    "contact:phone": "+33 2 40 48 63 53",
    "contact:postcode": "44000",
    "contact:street": "place Paul-Emime Ladmirault",
    "contact:website": "https://www.les-songes-nantes.com/",
    "description": "Spécialisée en vêtements grandes marques et collections récentes, pour femmes.",
    "image": "http://static4.seety.pagesjaunes.fr/dam_5550298/2f8b9ac6-f729-48b7-afdc-e13212b31206-1200",
    "name": "Les Songes",
    "note": "Voir https://wiki.openstreetmap.org/wiki/WikiProject_CircularEconomy pour des conseils de cartographie.",
    "opening_hours": "Tu-Sa 10:30-12:30,14:30-18:30",
    "recycling:clothes": "yes",
    "recycling:shoes": "yes",
    "second_hand": "only",
    "shop": "clothes",
    "survey:date": "2018-11-01",
    "wheelchair": "yes"
  }
},
{
  "type": "node",
  "id": 6043866502,
  "lat": 43.9990176,
  "lon": 4.8737573,
  "tags": {
    "name": "SR Auto",
    "second_hand": "only",
    "shop": "car"
  }
},
{
  "type": "node",
  "id": 6049872785,
  "lat": 48.1078612,
  "lon": -1.6777378,
  "tags": {
    "description": "dépot-vente et dépôt-location haut de gamme",
    "image": "https://www.citymalin.com/system/application/resources/images/gallery/902405/40488506_2043377499287037_5117093507550412800_n.jpg",
    "name": "Sélection Luxe",
    "opening_hours": "Tu-Sa 10:00-11:30,13:30-19:00",
    "second_hand": "only",
    "shop": "clothes"
  }
},
{
  "type": "node",
  "id": 6051099675,
  "lat": 45.6313423,
  "lon": 4.4370973,
  "tags": {
    "addr:city": "Saint-Symphorien-sur-Coise",
    "addr:housenumber": "1592E",
    "addr:postcode": "69590",
    "addr:street": "Avenue du Forez",
    "email": "contactmondocar@gmail.com",
    "facebook": "https://www.facebook.com/sarlmondocar/",
    "name": "Mondocar",
    "opening_hours": "Mo-Fr 09:00-12:00,14:00-18:00; Sa 09:00-12:00,14:00-17:00",
    "phone": "+33472305503",
    "second_hand": "only",
    "shop": "car",
    "website": "http://www.mondocar.fr/"
  }
},
{
  "type": "node",
  "id": 6069036300,
  "lat": 47.2247498,
  "lon": -1.5656993,
  "tags": {
    "clothes": "children",
    "contact:email": "contact@charlotteetcie.com",
    "contact:website": "http://www.charlotteetcie.com/",
    "description": "une très grande gamme d'articles pour enfants de 0 à 12 ans. Il y a environ 80% des articles d'occasion, 20% de neuf (fin de série).",
    "image": "https://www.petitfute.com/medias/professionnel/1494795/premium/600_450/b59deb3fe6c9ad8ab08f81d2b492e6b7_charlotte-cie_charlotte-et-cie.jpg",
    "name": "Charlotte & Compagnie (Haut-Pavés)",
    "note": "Voir https://wiki.openstreetmap.org/wiki/WikiProject_CircularEconomy pour des conseils de cartographie.",
    "opening_hours": "Tu-Fr 10:00-13:30, 15:30-19:00; Sa 10:00-19:00",
    "operator": "Entreprise Charlotte et Compagnie",
    "recycling:books": "yes",
    "recycling:clothes": "yes",
    "recycling:toys": "yes",
    "second_hand": "only",
    "shop": "baby_goods;clothes",
    "source": "Mieux trier à Nantes 07/2019",
    "survey:date": "2018-11-17",
    "vending": "vêtement;chaussure;puériculture;Playmobil;Lego;jeu;jouet;chaussure;figurine;livre;dvd;meuble;décoration;poussette;baignoire;turbulette"
  }
},
{
  "type": "node",
  "id": 6110863316,
  "lat": 43.6420935,
  "lon": 4.7981696,
  "tags": {
    "addr:city": "Saint-Martin-de-Crau",
    "addr:housenumber": "23",
    "addr:postcode": "13310",
    "addr:street": "Rue Copernic",
    "brand": "All",
    "name": "SMC Autoweb Occasions",
    "phone": "+33 7 62 83 96 44",
    "second_hand": "only",
    "shop": "car",
    "website": "http://www.smc-autoweb.com/"
  }
},
{
  "type": "node",
  "id": 6139528153,
  "lat": 48.8963992,
  "lon": 2.3196255,
  "tags": {
    "amenity": "recycling",
    "contact:addr:housenumber": "81",
    "contact:addr:street": "Boulevard Bessières",
    "contact:email": "paris@recyclerie-sportive.org",
    "contact:phone": "+33 9 81 08 80 85",
    "contact:website": "http://www.recyclerie-sportive.org/",
    "description": "Atelier de Co-Réparation & Création et Boutique Solidaire",
    "name": "La Recyclerie Sportive",
    "note": "Ancienne Poste",
    "opening_hours": "Th 15:00-19:00;Sa 14:00-18:00",
    "recycling:bicycles": "yes",
    "recycling_type": "centre",
    "second_hand": "only",
    "service:bicycle:diy": "yes",
    "shop": "bicycle"
  }
},
{
  "type": "node",
  "id": 6165650988,
  "lat": 45.7801840,
  "lon": 4.8323166,
  "tags": {
    "name": "Cash express",
    "opening_hours": "10:00-12:30,14:00-19:00",
    "operator": "Cash express",
    "phone": "+33 4 78 08 07 11",
    "second_hand": "only",
    "shop": "computer"
  }
},
{
  "type": "node",
  "id": 6170302278,
  "lat": 48.1138847,
  "lon": -1.6799995,
  "tags": {
    "name": "Dépôt Vente",
    "second_hand": "only",
    "shop": "clothes",
    "survey:date": "2018-12"
  }
},
{
  "type": "node",
  "id": 6176925485,
  "lat": 47.2779028,
  "lon": -1.7819925,
  "tags": {
    "amenity": "givebox",
    "charity": "yes",
    "contact:website": "http://sillon-donnait.fr",
    "description": "Lieu de partage et d'échanges où l'on peut déposer ou prendre des objets, sans obligation de réciprocité. Le principe est d'offrir localement, une seconde vie à des objets en bon état, créer du lien, ou s'entraider entre voisins.",
    "image": "https://static.wixstatic.com/media/037986_421eccf33ba749d8830a489660a2664d~mv2_d_3264_2448_s_4_2.jpg/v1/fill/w_552,h_412,al_c,q_80,usm_0.66_1.00_0.01/037986_421eccf33ba749d8830a489660a2664d~mv2_d_3264_2448_s_4_2.webp",
    "name": "boîte à dons Sillon donnait",
    "note": "Voir https://wiki.openstreetmap.org/wiki/WikiProject_CircularEconomy pour conseils de cartographie.",
    "opening_hours": "24/7",
    "operator": "collectif d'habitants de Saint Etienne de Montluc",
    "recycling:books": "yes",
    "recycling:clothes": "yes",
    "recycling:interior_decoration": "yes",
    "recycling:shoes": "yes",
    "recycling:toys": "yes",
    "recycling_type": "container",
    "source": "Mieux trier à Nantes 07/2019"
  }
},
{
  "type": "node",
  "id": 6215430736,
  "lat": 44.9579184,
  "lon": 4.8859104,
  "tags": {
    "addr:city": "Bourg-lès-Valence",
    "addr:postcode": "26500",
    "addr:street": "Rue des Chabanneries",
    "name": "Emmaüs",
    "opening_hours": "We 10:00-12:30,13:30-17:30; Fr 13:30-17:30; Sa 10:00-12:30,13:30-17:30",
    "second_hand": "only",
    "shop": "second_hand",
    "website": "https://www.emmaus-stpaullesromans.fr/nos-activit%C3%A9s/magasin-de-bourg-l%C3%A8s-valence/"
  }
},
{
  "type": "node",
  "id": 6225800528,
  "lat": 47.9534129,
  "lon": 1.8349131,
  "tags": {
    "addr:city": "Ormes",
    "addr:postcode": "45140",
    "addr:street": "Chemin de l'Allée",
    "name": "Communauté Emmaüs Ormes",
    "phone": "+33238747587",
    "second_hand": "only",
    "shop": "charity",
    "source": "local knowledge"
  }
},
{
  "type": "node",
  "id": 6235489584,
  "lat": 48.1767645,
  "lon": 3.2900188,
  "tags": {
    "name": "easy VO",
    "second_hand": "only",
    "shop": "car"
  }
},
{
  "type": "node",
  "id": 6240476544,
  "lat": 45.7950683,
  "lon": 1.1355336,
  "tags": {
    "addr:city": "Aixe-sur-Vienne",
    "addr:housenumber": "5",
    "addr:postcode": "87700",
    "addr:street": "Rue Jean-Baptiste Nanot",
    "contact:email": "limousin@secours-catholique.org",
    "contact:phone": "+33 6 31 48 34 22",
    "contact:website": "http://limousin.secours-catholique.org/",
    "name": "Secours Catholique",
    "opening_hours": "Tu 14:00-16:00; Fr 14:00-16:30",
    "operator": "Caritas France",
    "second_hand": "only",
    "shop": "charity",
    "wheelchair": "limited"
  }
},
{
  "type": "node",
  "id": 6271044877,
  "lat": 48.8219450,
  "lon": 2.3031951,
  "tags": {
    "name": "La fabrique",
    "second_hand": "only",
    "shop": "second_hand"
  }
},
{
  "type": "node",
  "id": 6284914726,
  "lat": 47.5635526,
  "lon": -1.6171514,
  "tags": {
    "amenity": "recycling",
    "charity": "yes",
    "charity:description": "La vestiboutique est un lieu tenu par les bénévoles de la Croix Rouge (de 6 à 10 bénévoles très sympatiques et très impliquées). Les fonds collectés financent la Croix Rouge.",
    "contact:city": "Nozay",
    "contact:phone": "+33 2 40 79 40 00",
    "contact:postcode": "44170",
    "contact:street": "Rue Marie Curie",
    "deposit:payment": "donation",
    "description": "Vous trouverez toute sorte de vêtements, à tout petit prix (ce sont les vêtements déposés dans les conteneurs de la Croix Rouge, qui sont lavés et triés par les bénévoles). Il y a aussi des draps, chaussures, du tissu...  dans un lieu très bien rangé.",
    "image": "http://www.mieuxtrieranantes.fr/docs/medias/StructuresReemploi/VestiboutiqueNozay/VestiboutiqueNozay_01.jpg;http://www.mieuxtrieranantes.fr/docs/medias/StructuresReemploi/VestiboutiqueNozay/VestiboutiqueNozay_03.jpg",
    "mapillary": "aMVIQxuaY8m7mueG9u-rGg",
    "name": "Vestiboutique (Croix-Rouge)",
    "note": "Voir https://wiki.openstreetmap.org/wiki/WikiProject_CircularEconomy pour conseils de cartographie. ",
    "opening_hours": "Sa[3] 09:00-12:00",
    "opening_hours:phone": "0240794000",
    "operator": "Croix-Rouge",
    "product": "pull,chemise,pantalon,veste,chaussette,chaussure,couverture",
    "products": "vêtements,tissus",
    "recycling:clothes": "yes",
    "recycling:shoes": "yes",
    "recycling_type": "centre",
    "second_hand": "only",
    "shop": "clothes",
    "source": "MieuxTrierANantes, 03/2019"
  }
},
{
  "type": "node",
  "id": 6292305248,
  "lat": 47.2127731,
  "lon": -1.5547667,
  "tags": {
    "amenity": "deposit_sale",
    "contact:city": "Nantes",
    "contact:housenumber": "8",
    "contact:phone": "+33 6 26 62 92 21",
    "contact:postcode": "44000",
    "contact:street": "quai Turenne",
    "description": "Fringues, accessoires, chaussures vintage et à tous les prix.",
    "image": "https://www.bigcitylife.fr/wp-content/uploads/2017/05/P%C3%A9pette.jpg",
    "name": "Pépette",
    "opening_hours": "Fr 16:00-20:00; Sa 10:30-19:30",
    "operator": "Entreprise Pépette",
    "phone": "+33 6 26 62 92 21",
    "second_hand": "only",
    "shop": "clothes",
    "source": "Mieux trier à Nantes 08/2019",
    "survey:date": "2019-02-10"
  }
},
{
  "type": "node",
  "id": 6293068343,
  "lat": 43.9463078,
  "lon": 4.8115133,
  "tags": {
    "name": "Madame monsieur",
    "second_hand": "only",
    "shop": "clothes",
    "source": "survey",
    "survey:date": "2019-02-21"
  }
},
{
  "type": "node",
  "id": 6293073627,
  "lat": 43.9461923,
  "lon": 4.8116104,
  "tags": {
    "name": "Alternative concept store",
    "second_hand": "only",
    "shop": "clothes",
    "source": "survey",
    "survey:date": "2019-02-21"
  }
},
{
  "type": "node",
  "id": 6293075981,
  "lat": 43.9457041,
  "lon": 4.8125791,
  "tags": {
    "name": "La friperie",
    "second_hand": "only",
    "shop": "clothes",
    "source": "survey",
    "survey:date": "2019-02-21"
  }
},
{
  "type": "node",
  "id": 6298594785,
  "lat": 47.4347282,
  "lon": -1.5165385,
  "tags": {
    "amenity": "recycling",
    "charity": "yes",
    "contact:city": "Nort-sur-Erdre",
    "contact:email": "nort-sur-erdre@recyclerienordatlantique.org",
    "contact:housenumber": "3",
    "contact:phone": "+33 2 40 93 22 08",
    "contact:postcode": "44390",
    "contact:street": "Rue de l'Océan",
    "deposit:payment": "donation",
    "description": "Lieu de dépôt-boutique pour de très nombreux produits. Les horaires de dépôt sont les mêmes que ceux de la boutique.",
    "image": "http://www.mieuxtrieranantes.fr/docs/medias/StructuresReemploi/RecyclerieDeLAtlantique/RecyclerieDeLAtlantique_NortSurErdre.png",
    "mapillary": "QO60N-85kPJDMQkcUQ2AbA",
    "name": "Recyclerie Nord-Atlantique (Nort-Sur-Erdre)",
    "note": "Voir https://wiki.openstreetmap.org/wiki/WikiProject_CircularEconomy pour conseils de cartographie.",
    "opening_hours": "We,Fr,Sa 09:30-12:30,14:00-17:30",
    "operator": "Recyclerie Nord Atlantique;Trocantons",
    "recycling:bicycles": "yes",
    "recycling:books": "yes",
    "recycling:cds": "yes",
    "recycling:clothes": "yes",
    "recycling:computers": "yes",
    "recycling:dishes": "yes",
    "recycling:furniture": "yes",
    "recycling:interior_decoration": "yes",
    "recycling:pens": "yes",
    "recycling:shoes": "yes",
    "recycling:small_electrical_appliances": "yes",
    "recycling:toys": "yes",
    "recycling_type": "centre",
    "second_hand": "only",
    "shop": "general",
    "source": "MieuxTrierANantes 03/2019",
    "vending": "vêtements;mobiliers;petit électroménager;vaisselle;bibelots;livre;cd;dvd;BD;puériculture;jouet;quincaillerie;papier"
  }
},
{
  "type": "node",
  "id": 6298812616,
  "lat": 47.2332845,
  "lon": -1.5739429,
  "tags": {
    "amenity": "givebox",
    "charity": "yes",
    "contact:city": "Nantes",
    "contact:email": "hello@nousandco.fr",
    "contact:facebook": "http://www.facebook.com/groups/784528331589764/",
    "contact:housenumber": "59",
    "contact:postcode": "44300",
    "contact:street": "Rue de la Gourmette",
    "contact:website": "http://www.nantesenpartage.fr/les-boites-utiles/",
    "mapillary": "9ZaCe_wS5IpN2C_rLwWeyA",
    "name": "La Boîte Utile Washington",
    "network": "Les boîtes utiles",
    "note": "Voir https://wiki.openstreetmap.org/wiki/WikiProject_CircularEconomy pour conseils de cartographie.",
    "opening_hours": "24/7",
    "operator": "Association Nous and Co",
    "recycling:books": "yes",
    "recycling:clothes": "yes",
    "recycling:interior_decoration": "yes",
    "recycling:shoes": "yes",
    "recycling:toys": "yes",
    "second_hand": "only",
    "source": "Association Mieux trier à Nantes",
    "vending": "vêtement;pull;pantalon;veste;jeu;divers"
  }
},
{
  "type": "node",
  "id": 6312004156,
  "lat": 47.3359164,
  "lon": -1.3550005,
  "tags": {
    "amenity": "recycling",
    "charity": "yes",
    "contact:city": "Le Cellier",
    "contact:phone": "+33 2 40 97 78 55",
    "contact:postcode": "44850",
    "contact:street": "Zone Artisanale de Bel-Air",
    "contact:website": "http://www.trocantons.org",
    "description": "Recycle presque tout sauf literie endommagée ou tachée, produits toxiques liquides pâteux, matériel électrique hors d'usage, bouteilles de gaz, pneumatiques, tubes néons. Collecte à domicile du mardi au vendredi : se renseigner par téléphone.",
    "image": "https://www.trocantons.org/sites/default/files/trocantons-un-nouvel-elan-au-bois-madame.jpg",
    "name": "Trocantons Le Cellier",
    "note": "Voir https://wiki.openstreetmap.org/wiki/WikiProject_CircularEconomy pour des conseils de cartographie.",
    "opening_hours": "Fr 14:00-17:00; Sa 09:30-12:30",
    "operator": "Association Trocantons",
    "recycling:bicycles": "yes",
    "recycling:books": "yes",
    "recycling:clothes": "yes",
    "recycling:computers": "yes",
    "recycling:dishes": "yes",
    "recycling:furniture": "yes",
    "recycling:shoes": "yes",
    "recycling:small_electrical_appliances": "yes",
    "recycling:toys": "yes",
    "recycling_type": "centre",
    "second_hand": "only",
    "shop": "general",
    "source": "Association Mieux trier à Nantes 08/2019",
    "vending": "Vêtement;mobilier;petit électroménager;ordinateur;vaisselle;bibelot;livre;CD;dvd;disque;puériculture;jouet;outil;quincaillerie,papier;bouchon"
  }
},
{
  "type": "node",
  "id": 6325471103,
  "lat": 43.9511057,
  "lon": 4.8155349,
  "tags": {
    "name": "L'Arbre de Vie",
    "second_hand": "only",
    "shop": "clothes"
  }
},
{
  "type": "node",
  "id": 6325494815,
  "lat": 43.9503693,
  "lon": 4.8136346,
  "tags": {
    "name": "Secours Populaire",
    "second_hand": "only",
    "shop": "charity"
  }
},
{
  "type": "node",
  "id": 6325542069,
  "lat": 43.9493097,
  "lon": 4.8118305,
  "tags": {
    "name": "Warhammer",
    "second_hand": "only",
    "shop": "games",
    "source": "survey",
    "survey:date": "2019-10-14",
    "was:name": "Games Workshop",
    "was:shop": "video_games"
  }
},
{
  "type": "node",
  "id": 6329621401,
  "lat": 49.7793772,
  "lon": 1.9781868,
  "tags": {
    "name": "Recyclerie Poix-De-Picardie",
    "second_hand": "only",
    "shop": "second_hand",
    "website": "https://fr-fr.facebook.com/Recyclerie-Poix-De-Picardie-1698812127002433/"
  }
},
{
  "type": "node",
  "id": 6329734322,
  "lat": 45.7541202,
  "lon": 4.8686655,
  "tags": {
    "name": "Addi Mohamed",
    "payment:cash": "yes",
    "payment:cheque": "yes",
    "phone": "+33 6 13 85 44 86",
    "second_hand": "only",
    "shop": "appliance"
  }
},
{
  "type": "node",
  "id": 6337748932,
  "lat": 48.8461787,
  "lon": 2.3203735,
  "tags": {
    "addr:city": "Paris",
    "addr:housenumber": "109",
    "addr:postcode": "75006",
    "addr:street": "Rue du Cherche-Midi",
    "clothes": "women;maternity",
    "currency:EUR": "yes",
    "currency:others": "no",
    "name": "Chercheminippes Femme Prêt-à-Porter Créateurs",
    "opening_hours": "Mo-Sa 11:00-19:00",
    "operator": "SARL Chercheminippes",
    "phone": "+33 1 42 84 07 70",
    "second_hand": "only",
    "shop": "clothes",
    "website": "http://chercheminippes.fr"
  }
},
{
  "type": "node",
  "id": 6337748933,
  "lat": 48.8460905,
  "lon": 2.3202314,
  "tags": {
    "addr:city": "Paris",
    "addr:housenumber": "111",
    "addr:postcode": "75006",
    "addr:street": "Rue du Cherche-Midi",
    "clothes": "men",
    "currency:EUR": "yes",
    "currency:others": "no",
    "name": "Chercheminippes Homme",
    "opening_hours": "Mo-Sa 11:00-19:00",
    "operator": "SARL Chercheminippes",
    "phone": "+33 1 42 22 53 76",
    "second_hand": "only",
    "shop": "clothes",
    "website": "http://chercheminippes.fr"
  }
},
{
  "type": "node",
  "id": 6337748934,
  "lat": 48.8458187,
  "lon": 2.3194965,
  "tags": {
    "addr:city": "Paris",
    "addr:housenumber": "124",
    "addr:postcode": "75006",
    "addr:street": "Rue du Cherche-Midi",
    "currency:EUR": "yes",
    "currency:others": "no",
    "name": "Chercheminippes Ados",
    "opening_hours": "Mo-Sa 11:00-19:00",
    "operator": "SARL Chercheminippes",
    "phone": "+33 1 45 49 20 22",
    "second_hand": "only",
    "shop": "clothes",
    "website": "http://chercheminippes.fr"
  }
},
{
  "type": "node",
  "id": 6337748935,
  "lat": 48.8463279,
  "lon": 2.3203092,
  "tags": {
    "addr:city": "Paris",
    "addr:housenumber": "114",
    "addr:postcode": "75006",
    "addr:street": "Rue du Cherche-Midi",
    "clothes": "women",
    "currency:EUR": "yes",
    "currency:others": "no",
    "name": "Chercheminippes Femme Couturiers Créateurs Japonais",
    "opening_hours": "Mo-Sa 11:00-19:00",
    "operator": "SARL Chercheminippes",
    "phone": "+33 1 42 84 37 26",
    "second_hand": "only",
    "shop": "clothes",
    "website": "http://chercheminippes.fr"
  }
},
{
  "type": "node",
  "id": 6337748936,
  "lat": 48.8466937,
  "lon": 2.3206009,
  "tags": {
    "addr:city": "Paris",
    "addr:housenumber": "17",
    "addr:postcode": "75006",
    "addr:street": "Rue Saint-Jean-Baptiste de la Salle",
    "clothes": "babies;children",
    "currency:EUR": "yes",
    "currency:others": "no",
    "name": "Chercheminippes Enfant",
    "opening_hours": "Mo-Sa 11:00-19:00",
    "operator": "SARL Chercheminippes",
    "phone": "+33 1 45 44 97 61",
    "second_hand": "only",
    "shop": "second_hand",
    "website": "http://chercheminippes.fr"
  }
},
{
  "type": "node",
  "id": 6337748937,
  "lat": 48.8468261,
  "lon": 2.3212322,
  "tags": {
    "addr:city": "Paris",
    "addr:housenumber": "106",
    "addr:postcode": "75006",
    "addr:street": "Rue du Cherche-Midi",
    "currency:EUR": "yes",
    "currency:others": "no",
    "name": "Chercheminippes Décoration Univers de la Maison",
    "opening_hours": "Mo-Sa 11:00-19:00",
    "operator": "SARL Chercheminippes",
    "phone": "+33 1 45 49 21 87",
    "second_hand": "only",
    "shop": "interior_decoration",
    "website": "http://chercheminippes.fr"
  }
},
{
  "type": "node",
  "id": 6357072845,
  "lat": 47.1889053,
  "lon": -1.5505001,
  "tags": {
    "amenity": "recycling",
    "brand": "Ding-Fring",
    "charity": "yes",
    "contact:city": "Rezé",
    "contact:housenumber": "59",
    "contact:phone": "+33 2 51 70 28 35",
    "contact:postcode": "44000",
    "contact:street": "rue de la Commune de 1871",
    "contact:website": "http://www.lerelais.org/aussi.php?page",
    "description": "Les boutiques 'Ding Fring' proposent certains des vêtements déposés dans les bornes Le Relais : pull, lingerie, vestes, jupes, pantalons, laine, ceintures, vêtement de travail, livres, peluches... Un quart du stock renouvelé toutes les semaines.",
    "mapillary": "9woxrcAkxIP0HX0YrjMjrw",
    "name": "Ding-Fring Rezé",
    "note": "Voir https://wiki.openstreetmap.org/wiki/WikiProject_CircularEconomy pour conseils de cartographie. ",
    "opening_hours": "Mo-Fr 10:00-18:45; Sa 10:00-18:15",
    "operator": "SCOP Le Relais Atlantique",
    "recycling:clothes": "yes",
    "recycling:shoes": "yes",
    "second_hand": "only",
    "shop": "clothes",
    "source": "MieuxTrierANantes 2019"
  }
},
{
  "type": "node",
  "id": 6365260185,
  "lat": 47.2147576,
  "lon": -1.5548168,
  "tags": {
    "amenity": "givebox",
    "contact:city": "Nantes",
    "contact:housenumber": "9",
    "contact:postcode": "44000",
    "contact:street": "rue de la Bléterie",
    "description": "Géré par le restaurant proche et grâce aux apports de particuliers, ce réfrigérateur s’adresse aux personnes dans le besoin.",
    "mapillary": "dScEa0ge8oVBKjHoyiBlqQ",
    "name": "Frigo solidaire",
    "note": "Voir https://wiki.openstreetmap.org/wiki/WikiProject_CircularEconomy pour conseils de cartographie. ",
    "opening_hours": "24/7",
    "operator": "Restaurant Chacha",
    "recycling:food": "yes",
    "recycling_type": "container",
    "source": "MieuxTrierANantes 03/2019"
  }
},
{
  "type": "node",
  "id": 6370521422,
  "lat": 47.2222664,
  "lon": -1.5306644,
  "tags": {
    "amenity": "recycling",
    "charity": "yes",
    "contact:city": "Nantes",
    "contact:email": "contact@stations-services.org",
    "contact:facebook": "https://www.facebook.com/La-boutique-du-r%C3%A9emploi-1603285746441222/",
    "contact:housenumber": "81",
    "contact:phone": "+33 6 85 48 90 06",
    "contact:postcode": "44000",
    "contact:street": "Boulevard Ernest Dalby",
    "description": "Vente de mobiliers, objets, équipements de maison, déco, vaisselle, jeux, puériculture, brocante issus du réemploi",
    "mapillary": "HE6ywpq1KbyTpJeAtjJ_aQ",
    "name": "La boutique du réemploi - Recyclerie",
    "note": "Voir https://wiki.openstreetmap.org/wiki/WikiProject_CircularEconomy pour conseils de cartographie.",
    "opening_hours": "We,Fr,Sa 10:00-13:00,14:00-18:00",
    "operator": "Association Stations Services",
    "recycling:bicycles": "yes",
    "recycling:books": "yes",
    "recycling:clothes": "yes",
    "recycling:computers": "yes",
    "recycling:dishes": "yes",
    "recycling:interior_decoration": "yes",
    "recycling:shoes": "yes",
    "recycling:small_electrical_appliances": "yes",
    "recycling:toys": "yes",
    "recycling_type": "centre",
    "second_hand": "only",
    "shop": "general",
    "source": "MieuxTrierANantes 03/2019"
  }
},
{
  "type": "node",
  "id": 6376673388,
  "lat": 47.2812847,
  "lon": -2.2141832,
  "tags": {
    "amenity": "recycling",
    "charity": "yes",
    "contact:city": "Saint-Nazaire",
    "contact:facebook": "https://www.facebook.com/aubonheurdesbennes/",
    "contact:phone": "+33 6 45 07 25 99",
    "contact:postcode": "44600",
    "contact:street": "rue René Guillouzo",
    "contact:website": "http://www.aubonheurdesbennes.fr",
    "description": "L'association Au bonheur des bennes est à l'initiative de la création d'une recyclerie à Saint-Nazaire et son agglo.",
    "mapillary": "L0LoMUGoAlFRj_Y31pRgEg",
    "name": "Au Bonheur des Bennes",
    "note": "Voir https://wiki.openstreetmap.org/wiki/WikiProject_CircularEconomy pour conseils de cartographie.",
    "opening_hours": "Tu-We Fr 09h30-13h00, Sa 10h00-17h00",
    "operator": "Association Au Bonheur des Bennes",
    "recycling:books": "yes",
    "recycling:cds": "yes",
    "recycling:clothes": "yes",
    "recycling:furniture": "yes",
    "recycling:toys": "yes",
    "recycling_type": "centre",
    "second_hand": "only",
    "shop": "general",
    "source": "MieuxTrierANantes 04/2019",
    "vending": "vélo;mobilier;textile;vaisselle;jouet;puériculture;livre;CD;DVD;outillage;matériel électrique"
  }
},
{
  "type": "node",
  "id": 6376749178,
  "lat": 44.8985142,
  "lon": 5.0061112,
  "tags": {
    "contact:city": "Sainte-Luce Sur Loire",
    "contact:email": "shopfrance@afb-group.eu",
    "contact:facebook": "https://www.facebook.com/Social.Green.IT.France/",
    "contact:housenumber": "1",
    "contact:phone": "+33 2 49 49 26 27",
    "contact:postcode": "44980",
    "contact:street": "Rue Gustave Eiffel",
    "contact:website": "http://www.afb-group.fr/",
    "description": "Nous collectons exclusivement du matériel informatique (ordinateur fixe et portable, écran, imprimante, scanner). Et nous vendons du matériel informatique de gamme professionnelle, reconditionné et garanti un an à des prix abordables.",
    "name": "AFB",
    "note": "Voir https://wiki.openstreetmap.org/wiki/WikiProject_CircularEconomy pour conseils de cartographie. ",
    "opening_hours": "Mo-Fr 09:30-12:30,14:00-18:30",
    "product": "ordinateur fixe,ordiateur portable,écran,imprimante,scanner",
    "recycling": "computer",
    "second_hand": "only",
    "shop": "computer",
    "source": "MieuxTrierANantes 02/2018"
  }
},
{
  "type": "node",
  "id": 6387495548,
  "lat": 47.2993917,
  "lon": -1.5502185,
  "tags": {
    "amenity": "givebox",
    "charity": "yes",
    "contact:facebook": "https://facebook.com/LeTransiStore/",
    "contact:phone": "+33 6 07 36 71 66",
    "contact:website": "https://www.letransistore.org/boitatroc/#",
    "description": "Le local s'appelle \"la Boitatroc\", et fonctionne sur le modèle des GiveBox. C'est l'un des projets portés par l'association Le TransiStore, dont l'objet est de créer une recyclerie-café écocitoyenne à la Chapelle-sur-Erdre.",
    "mapillary": "VC1nvn6-fcuq3rzIXXkOPA",
    "name": "La BoiTaTroc",
    "note": "Voir https://wiki.openstreetmap.org/wiki/WikiProject_CircularEconomy pour conseils de cartographie.",
    "opening_hours": "24/7",
    "operator": "Association Transistore",
    "recycling:books": "yes",
    "recycling:clothes": "yes",
    "recycling:shoes": "yes",
    "recycling:toys": "yes",
    "second_hand": "only",
    "source": "MieuxTrierANantes 04/2019",
    "vending": "vêtement,pull,pantalon,veste,jeu,divers"
  }
},